Name,IATA Code,ICAO Code,Country,City,City Code,Latitude,Longitude,Timezone,Departures
A L Mangham Jr. Regional Airport,OCH,KOCH,US,Nacogdoches,OCH,31.57788,-94.70668,America/Chicago,
A P Hill Army Airfield (Fort A P Hill),APH,KAPH,US,Bowling Green,,38.06968,-77.31809,America/New_York,
Aban Uqua Airportse,QKA,KQKA,US,KXXQO City,,-14.735092,-91.112751,Etc/GMT+6,
Abbeville Chris Crusta Memorial Airport,,KIYA,US,New Iberia,ARA,29.97161,-92.0847,America/Chicago,
Aberdeen Regional Airport,ABR,KABR,US,Aberdeen,ABR,45.4497,-98.42148,America/Chicago,374.0
Abernathy Field,,KGZS,US,Pulaski,,35.15062,-87.05316,America/Chicago,
Abilene Regional Airport,ABI,KABI,US,Abilene,ABI,32.41124,-99.68203,America/Chicago,840.0
Abraham Lincoln Capital Airport,SPI,KSPI,US,Springfield,SPI,39.8441,-89.67789,America/Chicago,389.0
Acadiana Regional Airport,ARA,KARA,US,New Iberia,ARA,30.0377,-91.88373,America/Chicago,
Accomack County Airport,MFV,KFMV,US,,,37.64318,-75.76106,America/New_York,
Ada Municipal Airport,ADT,KADH,US,Ada,,34.80314,-96.6714,America/Chicago,
Adak Airport,ADK,PADK,US,Adak,,51.87796,-176.64603,America/Adak,39.0
Adams Field,LIT,KLIT,US,Little Rock,LIT,34.73009,-92.22431,America/Chicago,5860.0
Addington Field,EKX,KEKX,US,Elizabethtown,EKX,37.68945,-85.92552,America/New_York,
Addison Airport,ADS,KADS,US,Dallas,DFW,32.96846,-96.83667,America/Chicago,
Adirondack Regional Airport,SLK,KSLK,US,Saranac Lake,SLK,44.38025,-74.20483,America/New_York,561.0
Aeroflex-Andover Airport,,,US,,,41.0089,-74.73791,America/New_York,
Afton Municipal Airport,AFO,KAFO,US,Afton,,42.70924,-110.94075,America/Denver,
"Ahoskie, Tri-County Airport",,KASJ,US,,,36.2975,-77.17083,America/New_York,
Aiken Municipal Airport,AIK,KAIK,US,Aiken,AIK,33.64977,-81.67887,America/New_York,
Ainsworth Municipal Airport,ANW,KANW,US,Ainsworth,,42.57917,-99.99318,America/Chicago,
Airglades Airport,,,US,Clewiston,,26.735195,-81.051078,America/New_York,
Airlake Airport,,KLVN,US,Minneapolis,,44.62785,-93.22811,America/Chicago,
Aitkin Municipal Airport,,KAIT,US,Aitkin,,46.54746,-93.67691,America/Chicago,
AJ Eisenberg Airport,ODW,KOKH,US,Oak Harbor,ODW,48.25154,-122.67814,America/Los_Angeles,
Akhiok Airport,AKK,PAKH,US,Akhiok,AKK,56.94003,-154.18083,America/Anchorage,
Akiachak Airport,KKI,,US,Akiachak,KKI,60.90623,-161.42742,America/Anchorage,
Akiak Airport,AKI,PFAK,US,Akiak,AKI,60.90481,-161.22702,America/Anchorage,
Akron-Canton Regional Airport,CAK,KCAK,US,Akron,CAK,40.91617,-81.44234,America/New_York,1489.0
Akron Fulton International Airport,AKC,KAKR,US,Akron,CAK,41.03728,-81.46678,America/New_York,
Akron-Washington County Airport,AKO,KAKO,US,Akron,,40.17526,-103.22244,America/Denver,
Akutan Seaplane Base,KQA,PAUT,US,Akutan,KQA,54.13338,-165.77792,America/Anchorage,
Alakanuk Airport,AUK,PAUK,US,Alakanuk,AUK,62.67969,-164.64894,America/Nome,
Alamogordo-White Sands Regional Airport,ALM,KALM,US,Alamogordo,ALM,32.83981,-105.99054,America/Denver,
Albany County Airport,ALB,KALB,US,Albany,ALB,42.74813,-73.80234,America/New_York,6195.0
Albany Naval Air Station (historical),NAB,,US,Albany,ABY,31.59778,-84.08917,America/New_York,
Albert J Ellis Airport,OAJ,KOAJ,US,Richlands,OAJ,34.83051,-77.60609,America/New_York,
Albert Lea Municipal Airport,AEL,KAEL,US,Albert Lea,AUM,43.68135,-93.36743,America/Chicago,
Albert Whitted Airport,SPG,KSPG,US,St Petersburg,PIE,27.7641,-82.62837,America/New_York,
Albertus Airport,FEP,KFEP,US,Freeport,FEP,42.24641,-89.58178,America/Chicago,
Albertville Regional Airport,,,US,Gadsden,GAD,34.22889,-86.25556,America/Chicago,
Albion Municipal Airport,,KBVN,US,Albion,,41.72918,-98.05617,America/Chicago,
"ALBUQUERQUE (ARTCC),NM.",,KZAB,US,,,35.05,106.6,Asia/Shanghai,
Albuquerque International Airport,ABQ,KABQ,US,Albuquerque,ABQ,35.04199,-106.60697,America/Denver,6619.0
Aleknagik /New Airport,WKK,,US,Aleknagik,WKK,59.28256,-158.61767,America/Anchorage,
Aleneva Airport,AED,,US,,,58.03333,-152.89999,America/Anchorage,
Alexander Field South Wood County Airport,ISW,KISW,US,Wisconsin Rapids,ISW,44.36082,-89.83277,America/Chicago,
Alexander Salamon Airport,,KAMT,US,West Union,,38.8549,-83.56348,America/New_York,
Alexandria Esler Regional Airport,ESF,KESF,US,Alexandria,AEX,31.3949,-92.29569,America/Chicago,
Alexandria International Airport,AEX,KAEX,US,Alexandria,AEX,31.32243,-92.5429,America/Chicago,934.0
Algona Municipal Airport,AXG,KAXA,US,Algona,,43.07774,-94.27191,America/Chicago,
Alice International Airport,ALI,KALI,US,Alice,ALI,27.74114,-98.02722,America/Chicago,
Alitak Seaplane Base,ALZ,,US,Lazy Bay,ALZ,56.89839,-154.24766,America/Anchorage,
Allakaket Airport,AET,PFAL,US,Allakaket,AET,66.54959,-152.63136,America/Anchorage,
Allegheny County Airport,AGC,KAGC,US,Pittsburgh,PIT,40.35479,-79.92977,America/New_York,
Allen Army Air Field,BIG,PABI,US,Delta Junction Ft Greely,,63.99444,-145.72028,America/Anchorage,
Allen C Perkinson Municipal Airport,BKT,KBKT,US,Blackstone,PTB,37.07459,-77.96278,America/New_York,
Allen Parish Airport,,KACP,US,Oakdale,,30.75056,-92.68861,America/Chicago,
Allendale County Airport,,KAQX,US,Allendale,,32.995098,-81.270203,America/New_York,
Allentown Queen City Municipal Airport,,KXLL,US,Allentown,ABE,40.57384,-75.48817,America/New_York,
Alliance Municipal Airport,AIA,KAIA,US,Alliance,AIA,42.05303,-102.80409,America/Denver,
Alpena County Regional Airport,APN,KAPN,US,Alpena,APN,45.07807,-83.56026,America/Detroit,367.0
Alpine Airstrip,,PALP,US,Nuiqsut,,70.33333,-150.93333,America/Anchorage,
Alpine - Casparis Municipal Airport,ALE,,US,Alpine,ALE,30.38794,-103.67662,America/Chicago,
Altoona-Blair County Airport,AOO,KAOO,US,Altoona,AOO,40.29619,-78.32001,America/New_York,
Alturas Municipal Airport,,KAAT,US,Alturas,,41.48267,-120.56635,America/Los_Angeles,
Altus Air Force Base,LTS,KLTS,US,Altus,,34.66396,-99.27425,America/Chicago,
Altus Municipal Airport,AXS,KAXS,US,Altus,,34.69812,-99.3387,America/Chicago,
Alva Regional Airport,,KAVK,US,Alva,,36.77309,-98.67009,America/Chicago,
Ambler Airport,ABL,PAFM,US,Ambler,ABL,67.10236,-157.85951,America/Anchorage,
Amedee Army Airfield,AHC,KAHC,US,Herlong,,40.266,-120.13943,America/Los_Angeles,
Amery Municipal Airport,AHH,KAHH,US,Amery,,45.2831,-92.37253,America/Chicago,
Ames Municipal Airport,AMW,KAMW,US,Ames,AMW,41.99193,-93.62161,America/Chicago,
Amook Bay Seaplane Base,AOS,,US,Amook Bay,AOS,57.47161,-153.81542,America/Anchorage,
Anacortes Airport,OTS,,US,Anacortes,ODW,48.49809,-122.66147,America/Los_Angeles,
Anaktuvuk Pass Airport,AKP,PAKP,US,Anaktuvuk Pass,AKP,68.13738,-151.73936,America/Anchorage,
Anchorage International Airport,ANC,PANC,US,Anchorage,ANC,61.17417,-149.99611,America/Anchorage,26792.0
"Andalusia, Andalusia-Opp Municipal Airport",,,US,Enterprise,ETS,31.30833,-86.39222,America/Chicago,
Anderson County Airport,AND,KAND,US,Anderson,AND,34.49483,-82.70875,America/New_York,
Anderson Municipal Airport,AID,KAID,US,Anderson,AID,40.10893,-85.61581,America/Indiana/Indianapolis,
Andrew Othole Memorial Airport,,KXNI,US,Zuni,,35.060675,-108.9376,America/Denver,
Angel Fire Airport,AXX,KAXX,US,Angel Fire,AXX,36.41079,-105.29057,America/Denver,
Angelina County Airport,LFK,KLFK,US,Lufkin,LFK,31.23408,-94.75021,America/Chicago,
Angoon Seaplane Base,AGN,PAGN,US,Angoon,AGN,57.5055,-134.59627,America/Juneau,
Aniak Airport,ANI,PANI,US,Aniak,ANI,61.58139,-159.54278,America/Anchorage,
Animas Air Park,AMK,,US,Durango,DRO,37.20318,-107.8692,America/Denver,
Ankeny Regional Airport,,KIKV,US,Ankeny,DSM,41.695,-93.5687,America/Chicago,
Ann Arbor Municipal,ARB,KARB,US,Ann Arbor,ARB,42.22282,-83.7455,America/Detroit,
Annette Island Airport,ANN,PANT,US,Metlakatla,,55.04244,-131.57223,America/Metlakatla,
Anniston Metropolitan Airport,ANB,KANB,US,Anniston,ANB,33.59029,-85.85253,America/Chicago,
Anoka County Airport,,KANE,US,Minneapolis,MSP,45.14469,-93.21106,America/Chicago,
Anson County Airport,,KAFP,US,Wadesboro,,35.02404,-80.07867,America/New_York,
Anthony Medical Center Heliport,,,US,,,37.1557,-98.01761,America/Chicago,
Anthony Municipal Airport,ANY,KANY,US,Anthony,,37.15447,-98.07772,America/Chicago,
Antlers Municipal Airport,ATE,,US,Antlers,,34.19156,-95.65138,America/Chicago,
Antrim County Airport,ACB,KACB,US,Bellaire,ACB,44.98834,-85.19839,America/Detroit,
Anvik Airport,ANV,PANV,US,Anvik,ANV,62.64639,-160.19056,America/Anchorage,
Apalachicola Municipal Airport,AAF,KAAF,US,Apalachicola,,29.72938,-85.0288,America/New_York,
Apple Valley Airport,APV,KAPV,US,Apple Valley,VCV,34.57888,-117.18699,America/Los_Angeles,
Appleton International Airport,ATW,KATW,US,Appleton,ATW,44.25721,-88.51927,America/Chicago,
Appleton Municipal Airport,,KAQP,US,Appleton,,45.22774,-96.0056,America/Chicago,
Aransas County Airport,RKP,KRKP,US,Rockport,CRP,28.08995,-97.04492,America/Chicago,
Arapahoe County Airport,APA,KAPA,US,Denver,DEN,39.56527,-104.84998,America/Denver,
Arapahoe Municipal Airport,AHF,,US,Arapahoe,,40.33945,-99.90651,America/Chicago,
Arcata-Eureka Airport,ACV,KACV,US,Arcata-Eureka,ACV,40.97164,-124.10709,America/Los_Angeles,747.0
Arco Butte County Airport,,KAOC,US,Arco,,43.6035,-113.334,America/Boise,
Arctic Village Airport,ARC,PARC,US,Arctic Village,ARC,68.11495,-145.57981,America/Anchorage,
Ardmore Airport,,,US,Huntsville,HSV,34.97872,-86.88273,America/Chicago,
Ardmore Downtown Executive Airport,AHD,,US,Ardmore,ADM,34.1506,-97.12114,America/Chicago,
Ardmore Municipal Airport,ADM,KADM,US,Ardmore,ADM,34.30231,-97.0189,America/Chicago,
Arens Field,,KRWN,US,Winamac,,41.09331,-86.60419,America/Indiana/Winamac,
Arkansas International Airport,BYH,KBYH,US,Blytheville,,35.95956,-89.94904,America/Chicago,
Arlington Municipal Airport,,KAWO,US,Arlington,PAE,48.16065,-122.15847,America/Los_Angeles,
Arlington Municipal Airport,,KGKY,US,Arlington,FTW,32.66374,-97.09445,America/Chicago,
Arnold Air Force Base,TUH,KAYX,US,Manchester,SYI,35.39871,-86.0785,America/Chicago,
Arnold Palmer Regional Airport,LBE,KLBE,US,Latrobe,LBE,40.27223,-79.40682,America/New_York,
Artesia Municipal Airport,ATS,KATS,US,Artesia,,32.85233,-104.46746,America/Denver,
Arthur Dunn Air Park,,,US,Titusville,TIX,28.62278,-80.8333,America/New_York,
Arthur N Neu Airport,CIN,KCIN,US,Carroll,,42.04693,-94.78998,America/Chicago,
Ashe County Airport,,KGEV,US,Jefferson,,36.43146,-81.42192,America/New_York,
Asheboro Regional Airport,,KHBI,US,Asheboro,SRW,35.65444,-79.89472,America/New_York,
Asheville Regional Airport,AVL,KAVL,US,Asheville,AVL,35.43733,-82.53895,America/New_York,4940.0
Ashland Municipal Airport-Sumner Parker Field,AHM,,US,Ashland,MFR,42.18836,-122.65749,America/Los_Angeles,
Ashland Regional Airport,,KDWU,US,Worthington,HTS,38.5545,-82.738,America/New_York,
Ashley Municipal Airport,ASY,KASY,US,Ashley,,46.02683,-99.35713,America/Chicago,
Ashtabula County Airport,JFN,KHZY,US,Ashtabula,,41.77783,-80.69536,America/New_York,
Aspen-Pitkin County Airport,ASE,KASE,US,Aspen,ASE,39.22304,-106.86921,America/Denver,
Astoria Regional Airport,AST,KAST,US,Astoria,AST,46.15816,-123.87959,America/Los_Angeles,
Athens-Ben Epps Airport,AHN,KAHN,US,Athens,AHN,33.94845,-83.32655,America/New_York,
Atka Airport,AKB,PAAK,US,Atka,AKB,52.22016,-174.20673,America/Adak,
Atkinson Municipal Airport,PTS,KPTS,US,Pittsburg,,37.44435,-94.73226,America/Chicago,
"ATLANTA AWP,GA.",,KZWT,US,,,33.638055,84.427778,Asia/Shanghai,
Atlanta Regional Airport,,KFFC,US,,,33.35706,-84.57215,America/New_York,
Atlantic City International Airport,ACY,KACY,US,Atlantic City,ACY,39.45762,-74.57654,America/New_York,
Atlantic Municipal Airport,AIO,KAIO,US,Atlantic,,41.40721,-95.04666,America/Chicago,
Atmautluak Airport,ATT,,US,Atmautluak,ATT,60.86675,-162.27314,America/Nome,
Atoka Municipal Airport,,KAQR,US,Atoka,,34.39526,-96.14865,America/Chicago,
Atqasuk Edward Burnell Sr. Memorial Airport,ATK,PATQ,US,Atqasuk,ATK,70.46802,-157.43134,America/Anchorage,
Atwood-Rawlins County City-County Airport,,KADT,US,,,39.83784,-101.04387,America/Chicago,
Auburn/Lewiston Municipal Airport,LEW,KLEW,US,Auburn/Lewiston,LEW,44.04856,-70.28647,America/New_York,
Auburn Municipal Airport,AUN,KAUN,US,Auburn,,38.9524,-121.08272,America/Los_Angeles,
Auburn-Opelika Robert G Pitts Airport,AUO,KAUO,US,Auburn,AUO,32.61541,-85.43606,America/Chicago,
Audubon County Airport,,KADU,US,Audubon,,41.70138,-94.92054,America/Chicago,
Augusta Regional Airport,AGS,KAGS,US,Augusta,AGS,33.36986,-81.96428,America/New_York,2470.0
Augusta State Airport,AUG,KAUG,US,Augusta,AUG,44.3205,-69.79721,America/New_York,
Aurora Municipal Airport,,KAUH,US,Aurora,GRI,40.8939,-97.99478,America/Chicago,
Aurora State Airport,,KUAO,US,Aurora,HIO,45.24969,-122.76968,America/Los_Angeles,
Austin-Bergstrom International Airport,AUS,KAUS,US,Austin,AUS,30.19453,-97.66987,America/Chicago,29894.0
Austin Executive Airport,EDC,KEDC,US,Pflugerville,AUS,30.39661,-97.56725,America/Chicago,
Austin Executive Airport,EDC,KEDC,US,Pflugerville,AUS,30.39661,-97.56725,America/Chicago,
Austin Airport,ASQ,KTMT,US,Austin,,39.46917,-117.19491,America/Los_Angeles,
Austin Municipal Airport,AUM,KAUM,US,Austin,AUM,43.66469,-92.93352,America/Chicago,
Austin Straubel International Airport,GRB,KGRB,US,Green Bay,GRB,44.48507,-88.12959,America/Chicago,2459.0
Ava Bill Martin Memorial Airport,,KAOV,US,Ava,,36.971901,-92.6819,America/Chicago,
Avenger Field,SWW,KSWW,US,Sweetwater,,32.4618,-100.47284,America/Chicago,
Avon Park Executive Airport,AVO,KAVO,US,Avon Park,,27.59444,-81.52626,America/New_York,
B. J. Mc Combs Sisterdale Airport (private),,,US,Kerrville,ERV,29.97605,-98.74364,America/Chicago,
Bacon County Airport,,KAMG,US,Alma,,31.53604,-82.50652,America/New_York,
Badami Airport,,PABP,US,Deadhorse,,70.1374969482,-147.0299987793,America/Anchorage,
Bagdad Airport,BGT,,US,Bagdad,BGT,34.5948,-113.16889,America/Phoenix,
Baker Municipal Airport,,KBHK,US,Baker,,46.35834,-104.25077,America/Denver,
Baker Municipal Airport,BKE,KBKE,US,Baker City,BKE,44.83765,-117.80966,America/Los_Angeles,
Baldwin County Airport,MLJ,KMLJ,US,Milledgeville,,33.15421,-83.24282,America/New_York,
Balloonport,,,US,,,37.09447,-97.96145,America/Chicago,
Baltimore-Washington International Airport,BWI,KBWI,US,Baltimore,BWI,39.17539,-76.66802,America/New_York,9364.0
Bandon State Airport,BDY,,US,Bandon,,43.0838,-124.40936,America/Los_Angeles,
Bangor International Airport,BGR,KBGR,US,Bangor,BGR,44.80892,-68.82275,America/New_York,2402.0
Banning Municipal Airport,BNG,KBNG,US,Banning,BNG,33.92136,-116.85746,America/Los_Angeles,
Baraboo Wisconsin Dells Airport,DLL,KDLL,US,Baraboo,,43.52193,-89.77068,America/Chicago,
Barkley Regional Airport,PAH,KPAH,US,Paducah,PAH,37.06083,-88.77375,America/Chicago,
Barksdale Air Force Base,BAD,KBAD,US,Bossier City,SHV,32.49696,-93.66762,America/Chicago,
Barnstable Municipal Airport-Boardman/Polando Field,HYA,KHYA,US,Hyannis,HYA,41.66733,-70.28741,America/New_York,632.0
Barnwell Regional Airport,BNL,KBNL,US,Barnwell,AIK,33.25955,-81.38083,America/New_York,
Barrow County Airport,WDR,KWDR,US,Winder,AHN,33.98292,-83.67016,America/New_York,
Barstow Daggett County Airport,DAG,KDAG,US,Daggett,,34.8536,-116.78753,America/Los_Angeles,
Barter Island LRRS Airport,BTI,PABA,US,Barter Island,BTI,70.13395,-143.58045,America/Anchorage,457.0
Bartlesville Municipal Airport,BVO,KBVO,US,Bartlesville,BVO,36.76231,-96.01137,America/Chicago,
Bartlett Cove Seaplane Base,BQV,,US,Gustavus,,58.45533,-135.88499,America/Juneau,
Bartletts Airport,BSZ,,US,Bartletts,BSZ,58.233611,-157.350278,America/Anchorage,
Bartow Municipal Airport,BOW,KBOW,US,Bartow,GIF,27.94364,-81.78314,America/New_York,
Basset Helipad,,,US,,,42.68928,-74.92141,America/New_York,
Batesville Regional Airport,BVX,KBVX,US,Batesville,,35.72591,-91.64736,America/Chicago,
Baton Rouge Metropolitan Airport,BTR,KBTR,US,Baton Rouge,BTR,30.53297,-91.14955,America/Chicago,3284.0
Battle Mountain Airport,BAM,KBAM,US,Battle Mountain,,40.60698,-116.87429,America/Los_Angeles,
Baudette International Airport,BDE,KBDE,US,Baudette,,48.72831,-94.61215,America/Chicago,
Baxley Municipal Airport,,KBHC,US,Baxley,,31.71302,-82.39178,America/New_York,
Bay City Municipal Airport,BBC,KBYY,US,Bay City,,28.97331,-95.86357,America/Chicago,
Bay View Airport,MVW,KBVS,US,Burlington,MVW,48.47038,-122.4235,America/Los_Angeles,
Baytown Airport,HPY,KHPY,US,Baytown,HPY,29.7872,-94.95712,America/Chicago,
Beale Air Force Base,BAB,KBAB,US,Beale Air Force Base,,39.14611,-121.43138,America/Los_Angeles,
Bear Creek 3 Airport,BCC,,US,Bear Creek,,63.57496,-156.14969,America/Anchorage,
Beatrice Municipal Airport,BIE,KBIE,US,Beatrice,BIE,40.30111,-96.75419,America/Chicago,
Beatty Airport,BTY,KBTY,US,Beatty,,36.86822,-116.78501,America/Los_Angeles,
Beaufort County Airport,BFT,KARW,US,Beaufort,BFT,32.41074,-80.63427,America/New_York,
Beaufort MCAS - Merritt Field,BFT,KNBC,US,Beaufort,,32.4774017334,-80.723197937,America/New_York,
"Beaufort, Michael J Smith Field Airport",,KMRH,US,Beaufort,,34.73361,-76.66056,America/New_York,
Beaumont Municipal Airport,BMT,KBMT,US,Beaumont,BPT,30.07044,-94.21554,America/Chicago,
Beauregard Regional Airport,DRI,KDRI,US,DeRidder,,30.83215,-93.33405,America/Chicago,
Beaver County Airport,BFP,KBVI,US,Beaver Falls,PIT,40.77229,-80.39118,America/New_York,
Beaver Island Airport,,KSJX,US,Beaver Island,,45.69294,-85.56287,America/Detroit,
Beaver Airport,WBQ,PAWB,US,Beaver,WBQ,66.362,-147.40781,America/Anchorage,
Beaver Ruin Heliport,JAO,,US,Lawrenceville,LZU,33.93066,-84.15325,America/New_York,
Bedford County Airport,,KHMZ,US,Bedford,,40.08804,-78.51666,America/New_York,
Beech Factory Airport,BEC,KBEC,US,Wichita,ICT,37.69447,-97.21499,America/Chicago,
Beech River Regional Airport,,KPVE,US,Darden,,35.65738,-88.19731,America/Chicago,
Beeville Municipal Airport,,KBEA,US,Beeville,,28.36752,-97.79672,America/Chicago,
Belfast Municipal Airport,,KBST,US,Belfast,,44.40915,-69.00871,America/New_York,
Bell Island Hot Springs Seaplane Base,KBE,,US,Bell Island,,55.9267,-131.57587,America/Juneau,
Belle Fourche Municipal Airport,,KEFC,US,Belle Fourche,,44.73326,-103.86148,America/Denver,
Belle Plaine Municipal Airport,,KTZT,US,Belle Plaine,,41.88329,-92.28366,America/Chicago,
Bellefontaine Regional Airport,,KEDJ,US,Bellefontaine,,40.37012,-83.81793,America/New_York,
Belleville Municipal Airport,,KRPB,US,Belleville,,39.81434,-97.65855,America/Chicago,
Bellingham International Airport,BLI,KBLI,US,Bellingham,BLI,48.79275,-122.53753,America/Los_Angeles,915.0
Beluga Airport,BVU,PABG,US,Beluga,,61.17522,-151.03862,America/Anchorage,
Bemidji-Beltrami County Airport,BJI,KBJI,US,Bemidji,BJI,47.50912,-94.93389,America/Chicago,
Ben Bruce Memorial Airpark,EVA,,US,Beaumont,BPT,30.32635,-94.07597,America/Chicago,
Bend Municipal Airport,,KBDN,US,Bend,RDM,44.09348,-121.20173,America/Los_Angeles,
Benson Municipal Airport,BBB,KBBB,US,Benson,,45.33163,-95.65087,America/Chicago,
Benton Field,BZF,,US,Redding,RDD,40.57531,-122.40646,America/Los_Angeles,
Bentonville Municipal Airport,,KVBT,US,Bentonville,ROG,36.34563,-94.2191,America/Chicago,
Berkeley County Airport,,KMKS,US,Moncks Corner,,33.18922,-80.03434,America/New_York,
Berkeley,JBK,,US,,JBK,37.86667,-122.3,America/Los_Angeles,
Berlin Regional Airport,BML,KBML,US,Berlin,,44.57478,-71.17508,America/New_York,
Bermuda Dunes Airport,UDD,KUDD,US,Bermuda Dunes,PSP,33.74559,-116.27061,America/Los_Angeles,
Bert Mooney Airport,BTM,KBTM,US,Butte,BTM,45.95465,-112.49808,America/Denver,347.0
Bessemer Airport,,KEKY,US,Bessemer,BHM,33.31194,-86.92546,America/Chicago,
"Bethel, Bethel Airport",,KBET,US,,,60.78583,-161.82639,America/Anchorage,
Bethel Airport,BET,PABE,US,Bethel,BET,60.77972,-161.83778,America/Anchorage,13252.0
Bethel Seaplane Base,JBT,,US,Bethel,,60.79107,-161.75167,America/Anchorage,
"Bettles, Bettles Airport",,KBTT,US,,,66.91611,-151.50889,America/Anchorage,
Bettles Airport,BTT,PABT,US,Bettles,BTT,66.91437,-151.52842,America/Anchorage,268.0
Beverly Municipal Airport,BVY,KBVY,US,Beverly / Danvers,BVY,42.58426,-70.91588,America/New_York,
Bicycle Lake Army Airfield,BYS,KBYS,US,Fort Irwin/Barstow,,35.2822,-116.63086,America/Los_Angeles,
Big Bear City Airport,RBF,,US,Big Bear,,34.26295,-116.85465,America/Los_Angeles,
Big Lake Airport,BGQ,PAGQ,US,Big Lake,,61.53557,-149.8129,America/Anchorage,
Big Mountain Air Force Station,BMX,PABM,US,Big Mountain,,59.362,-155.25347,America/Anchorage,
Big Piney-Marbleton Airport,BPI,KBPI,US,Big Piney,,42.58494,-110.11183,America/Denver,
Big Sandy Regional Airport,,KSJS,US,,,37.74803,-82.63904,America/New_York,
Big Spring McMahon-Wrinkle Airport,HCA,KBPG,US,Big Spring,HCA,32.21262,-101.52179,America/Chicago,
Bigfork Municipal Airport,,KFOZ,US,Bigfork,,47.78035,-93.6481,America/Chicago,
Biggs Army Air Field,BIF,KBIF,US,Fort Bliss/El Paso,ELP,31.84955,-106.38026,America/Denver,
Billy G Ray Field,,KCNP,US,Chappell,,41.07639,-102.46237,America/Denver,
Billy Mitchell Airport,HNC,KHSE,US,Hatteras,HNC,35.23177,-75.62125,America/New_York,
"Biloxi, Keesler Air Force Base, Navu",BIX,KBIX,US,Biloxi,PGL,30.41078,-88.92188,America/Chicago,
Birch Creek Airport,KBC,,US,Birch Creek,KBC,66.2698,-145.8186,America/Anchorage,
Birchwood Airport,,PABV,US,Birchwood,ANC,61.41611,-149.50861,America/Anchorage,
Birmingham-Shuttlesworth International Airport,BHM,KBHM,US,Birmingham,BHM,33.56166,-86.75254,America/Chicago,7117.0
Bisbee-Douglas International Airport,DUG,KDUG,US,Douglas Bisbee,,31.46899,-109.60424,America/Phoenix,
Bisbee Municipal Airport,BSQ,,US,Bisbee,FHU,31.37092,-109.88502,America/Phoenix,
Bishop Airport,BIH,KBIH,US,Bishop,BIH,37.37437,-118.36789,America/Los_Angeles,
Bishop International Airport,FNT,KFNT,US,Flint,FNT,42.96531,-83.74329,America/Detroit,910.0
Bismarck Municipal Airport,BIS,KBIS,US,Bismarck,BIS,46.77622,-100.75763,America/Chicago,1699.0
Black Hills Airport,SPF,KSPF,US,Spearfish,,44.47971,-103.78076,America/Denver,
Black River Falls Area Airport,,KBCK,US,Black River Falls,,44.25299,-90.84774,America/Chicago,
Black Rock Airport,,KZUN,US,,,35.08323,-108.79178,America/Denver,
Blackwell-Tonkawa Municipal Airport,,KBKN,US,Blackwell,PNC,36.74898,-97.34806,America/Chicago,
Blair Executive Airport,,KBTA,US,Blair,,41.414908,-96.109136,America/Chicago,
Blairsville Airport,,KDZJ,US,Blairsville,,34.85283,-83.99878,America/New_York,
Blake Field,,KAJZ,US,Delta,,38.78094,-108.06739,America/Denver,
Blake Sky Park Airport (Private),,,US,Napa,APC,38.45755,-122.05038,America/Los_Angeles,
Blakely Island Airport,BYW,,US,Blakely Island,BLI,48.58001,-122.82362,America/Los_Angeles,
Blanding Municipal Airport,BDG,KBDG,US,Blanding,,37.58303,-109.48329,America/Denver,
BLM Fire Center Heliport,,,US,Grand Junction,GJT,39.11748,-108.53954,America/Denver,
Block Island State Airport,BID,KBID,US,Block Island,BID,41.16816,-71.57783,America/New_York,
Blosser Municipal Airport,CNK,KCNK,US,Concordia,,39.54306,-97.65337,America/Chicago,
Bloyer Field Airport,,,US,,,43.97321,-90.48528,America/Chicago,
Blue Canyon-Nyack Airport,BLU,KBLU,US,Emigrant Gap,,39.27462,-120.71021,America/Los_Angeles,
Blue Earth Municipal Airport,,KSBU,US,Blue Earth,,43.59595,-94.08885,America/Chicago,
Blue Grass Airport,LEX,KLEX,US,Lexington,LEX,38.03702,-84.60522,America/New_York,4772.0
Blue Mountain Airport,VBM,,US,Blue Mountain,,57.8575,-157.08667,America/Anchorage,
Blue Ridge Airport,,KMTV,US,Martinsville,,36.63226,-80.01802,America/New_York,
Blythe Airport,BLH,KBLH,US,Blythe,BLH,33.61891,-114.71746,America/Los_Angeles,
Blytheville Municipal Airport,HKA,KHKA,US,Blytheville,,35.94035,-89.83064,America/Chicago,
Bob Baker Memorial Airport,IAN,PAIK,US,Kiana,IAN,66.97467,-160.43983,America/Anchorage,
Bob Sikes Airport,CEW,KCEW,US,Crestview,CEW,30.7788,-86.5219,America/Chicago,
Bob White Field,,,US,Zellwood,,28.735055,-81.62694,America/New_York,
Bob Wiley Field,,KSFD,US,,,43.39167,-99.8504,America/Chicago,
Bobs,,BOBS,US,Bradford,,35.391523,-91.443706,America/Chicago,
Boca Raton Brightline Railway Station,RRN,,US,Boca Raton,BCT,26.35361,-80.08722,America/New_York,
Boca Raton Airport,BCT,KBCT,US,Boca Raton,BCT,26.37897,-80.10699,America/New_York,
Boire Field,ASH,KASH,US,Nashua,ASH,42.78175,-71.51423,America/New_York,
Boise Air Terminal,BOI,KBOI,US,Boise,BOI,43.56156,-116.23984,America/Boise,9744.0
Bolinder Field-Tooele Valley Airport,,KTVY,US,Tooele,BTF,40.61227,-112.35077,America/Denver,
Bolingbrook's Clow International Airport,,,US,Romeoville,LOT,41.69597,-88.12923,America/Chicago,
Bolton Field,,KTZR,US,Columbus,CMH,39.90615,-83.13644,America/New_York,
Boone County Airport,HRO,KHRO,US,Harrison,HRO,36.26146,-93.15462,America/Chicago,141.0
Boone Municipal Airport,BNW,KBNW,US,Boone,AMW,42.04943,-93.84745,America/Chicago,
"Boone, Watauga County Hospital Heliport",,KTNB,US,,,36.2,-81.65,America/New_York,
Boothville Heliport,,KLNQ,US,Buras,,29.35414,-89.43591,America/Chicago,
Borrego Valley Airport,BXS,,US,Borrego Springs,,33.25801,-116.32469,America/Los_Angeles,
Boscobel Airport,,KOVS,US,Boscobel,,43.15678,-90.68071,America/Chicago,
Boston Harbour Seaplane Base,BNH,,US,Boston,OWD,42.35475,-71.04347,America/New_York,
Boswell Bay Airport,BSW,,US,Boswell Bay,,60.42306,-146.14591,America/Anchorage,
Boulder City Municipal Airport,BLD,KBVU,US,Boulder City,BLD,35.94818,-114.85771,America/Los_Angeles,
Boulder Junction Payzer Airport,,KBDJ,US,Boulder Junction,,46.13742,-89.64596,America/Chicago,
Boulder Municipal Airport,WBU,KBDU,US,Boulder,WBU,40.03943,-105.22582,America/Denver,
Boundary Airport,BYA,,US,Boundary,,64.07755,-141.12325,America/Anchorage,
Bowerman Airport,HQM,KHQM,US,Hoquiam,HQM,46.9712,-123.93656,America/Los_Angeles,
Bowers Field,ELN,KLEN,US,,,47.03374,-120.53146,America/Los_Angeles,
Bowling Green-Warren County Regional Airport,BWG,KBWG,US,Bowling Green,BWG,36.96449,-86.41943,America/Chicago,
Bowman Field,LOU,KLOU,US,Louisville,SDF,38.22813,-85.66302,America/Kentucky/Louisville,
Bowman Municipal Airport,BWM,KBPP,US,,,46.18751,-103.4288,America/Denver,
Boyne Mountain Airport,,KBFA,US,Boyne Falls,,45.16416,-84.92365,America/Detroit,
Brackett Field Airport,POC,KPOC,US,La Verne,EMT,34.0914,-117.78256,America/Los_Angeles,
Bradford Regional Airport,BFD,KBFD,US,Bradford,BFD,41.80284,-78.64003,America/New_York,238.0
Bradley International Airport,BDL,KBDL,US,Windsor Locks,HFD,41.93798,-72.68782,America/New_York,10027.0
Bradshaw Army Airfield,BSF,PHSF,US,Waimea (Kamuela),ITO,19.75901,-155.5541,Pacific/Honolulu,
Brady Curtis Field,BBD,KBBD,US,Brady,,31.17878,-99.32339,America/Chicago,
Brainerd Lakes Regional Airport,BRD,KBRD,US,Brainerd,BRD,46.39774,-94.13721,America/Chicago,
Branch County Memorial Airport,,KOEB,US,Coldwater,,41.93556,-85.05479,America/Detroit,
Brandywine Airport,,KOQN,US,West Chester,PHL,39.98986,-75.57836,America/New_York,
Branson Airport,BKG,KBBG,US,Branson,,36.53764,-93.20011,America/Chicago,
Branson West Municipal Airport- Emerson Field,,KFWB,US,,,36.70038,-93.39876,America/Chicago,
Brawley Municipal Airport,BWC,KBWC,US,Brawley,BWC,32.99178,-115.51358,America/Los_Angeles,
Braxton County Airport,,,US,,,38.68511,-80.65127,America/New_York,
Breckenridge-Wahpeton Interstate Airport,WAH,KBWP,US,Wahpeton,,46.24635,-96.60674,America/Chicago,
Breezy Point Airport,,,US,,,46.5959,-94.22004,America/Chicago,
Bremerton National Airport,PWT,KPWT,US,Bremerton,PWT,47.49275,-122.76243,America/Los_Angeles,
Brenham Municipal Airport,,,US,,,30.219,-96.37428,America/Chicago,
Brenner Field,,KFNB,US,Falls City,,40.07834,-95.59193,America/Chicago,
Brevig Mission Airport,KTS,PFKT,US,Brevig Mission,KTS,65.33088,-166.47362,America/Nome,
Brewster Field,HDE,KHDE,US,Holdrege,EAR,40.4514,-99.33565,America/Chicago,
Bridgeport Municipal Airport,,KXBP,US,Bridgeport,,33.17456,-97.82865,America/Chicago,
Brigham City Airport,BMC,KBMC,US,Brigham City,LGU,41.55239,-112.06226,America/Denver,
Bristow Galliano Heliport,,,US,,,29.41333,-90.29889,America/Chicago,
Britton Municipal Airport,TTO,KBTN,US,Britton,,45.81636,-97.74683,America/Chicago,
Broadus Airport,BDX,,US,Broadus,,45.47205,-105.46469,America/Denver,
Broken Bow Municipal Airport,BBW,KBBW,US,Broken Bow,BBW,41.4364,-99.64234,America/Chicago,
Brookhaven Calabro Airport,WSH,KHWV,US,Shirley,WSH,40.81769,-72.87032,America/New_York,
Brookings Airport,BOK,KBOK,US,Brookings,,42.07511,-124.28994,America/Los_Angeles,
Brookings Municipal Airport,BKX,KBKX,US,Brookings,BKX,44.30497,-96.81339,America/Chicago,
Brooks County Airport,,KBKS,US,Falfurrias,,27.20667,-98.12111,America/Chicago,
Brooks Field,,KRMY,US,Marshall,JXN,42.25278,-84.96049,America/Detroit,
Brooks Lodge Airport,RBH,,US,Brooks Lodge,RBH,58.55,-155.8,America/Anchorage,
Brown County Airport,,KGEO,US,Georgetown,,38.88231,-83.88457,America/New_York,
Brown Field Municipal Airport,SDM,KSDM,US,San Diego,SAN,32.57228,-116.98086,America/Los_Angeles,
Browns Airport,EPG,,US,Weeping Water,LNK,40.87016,-96.10894,America/Chicago,
Brownsville Airport,,,US,,,39.45481,-121.29434,America/Los_Angeles,
Brownsville-South Padre Island International Airport,BRO,KBRO,US,Brownsville,BRO,25.9073,-97.42609,America/Chicago,1307.0
Brownwood Municipal Airport,BWD,KBWD,US,Brownwood,BWD,31.79376,-98.95672,America/Chicago,
Bruce Campbell Field,DXE,KMBO,US,Madison,DXE,32.44014,-90.10439,America/Chicago,
Bruce Field Airport,,,US,,,31.6802,-99.97353,America/Chicago,
Brunswick Golden Isles Airport,BQK,KBQK,US,Brunswick,,31.25884,-81.46621,America/New_York,373.0
Bryant Army Heliport,FRN,PAFR,US,Fort Richardson,ANC,61.2625,-149.65444,America/Anchorage,
Bryce Canyon Airport,BCE,KBCE,US,Bryce Canyon,,37.69998,-112.15353,America/Denver,
Buchanan Field Airport,CCR,KCCR,US,Concord,CCR,37.98937,-122.05802,America/Los_Angeles,
Buckeye Municipal Airport,BXK,KBXK,US,Buckeye,GYR,33.42137,-112.68397,America/Phoenix,
Buckhorn Ranch Airport,CSE,,US,,,38.85277,-106.93006,America/Denver,
Buckland Airport,BKC,PABL,US,Buckland,BKC,65.97995,-161.1393,America/Anchorage,
Buckley Air Force Base,BFK,KBKF,US,Aurora,DEN,39.7056,-104.75507,America/Denver,
Buffalo-Lancaster Regional Airport,,KBQR,US,Lancaster,BUF,42.92335,-78.61177,America/New_York,
Buffalo Municipal Airport,,KBFK,US,Buffalo,,36.86521,-99.61988,America/Chicago,
Buffalo Municipal Airport,,KCFE,US,Buffalo,MSP,45.15885,-93.8433,America/Chicago,
Buffalo Niagara International Airport,BUF,KBUF,US,Buffalo,BUF,42.94034,-78.7317,America/New_York,9977.0
Bullen Point Short Range Radar Station Airport,,PABU,US,Kaktovik,,70.170999,-146.844897,America/Anchorage,
Bullfrog Basin Airport,BFG,,US,Bullfrog,,37.54648,-110.71361,America/Denver,
Burbank Bob Hope Airport,BUR,KBUR,US,Burbank,BUR,34.20056,-118.35925,America/Los_Angeles,3787.0
Burke County Airport,,KBXG,US,Waynesboro,,33.04228,-82.00317,America/New_York,
Burke Lakefront Airport,BKL,KBKL,US,Cleveland,CLE,41.51727,-81.68319,America/New_York,
Burley Municipal Airport,BYI,KBYI,US,Burley,BYI,42.54241,-113.77141,America/Boise,
Burlington-Alamance Regional Airport,,KBUY,US,Burlington,GSO,36.04514,-79.47808,America/New_York,
Burlington International Airport,BTV,KBTV,US,Burlington,BTV,44.47144,-73.15207,America/New_York,4914.0
Burlington Municipal Airport,BRL,KBRL,US,Burlington,BRL,40.7831,-91.12542,America/Chicago,237.0
Burlington Municipal Airport,,KBUU,US,Burlington,,42.69002,-88.3037,America/Chicago,
Burnet Municipal Kate Craddock Field,,KBMQ,US,Burnet,,30.73796,-98.23919,America/Chicago,
Burnett County Airport,,KRZN,US,Siren,,45.82168,-92.369,America/Chicago,
Burns Municipal Airport,BNO,KBNO,US,Burns,BNO,43.5921,-118.95493,America/Los_Angeles,
Burwell Municipal Airport,BUB,KBUB,US,Burwell,BUB,41.77669,-99.14975,America/Chicago,
Butler County Regional Airport,HAO,KHAO,US,Hamilton,HAO,39.36224,-84.52498,America/New_York,
Butler-Graham Airport,BTP,KBTP,US,Butler,PIT,40.77645,-79.9495,America/New_York,
Butler Memorial Airport,BUM,KBUM,US,Butler,,38.28918,-94.34137,America/Chicago,
Butts Army Air Field,FCS,KFCS,US,Fort Carson,COS,38.685,-104.76525,America/Denver,
Buzzards Roost Airport,,,US,,,36.14635,-95.41569,America/Chicago,
C David Campbell Field-Corsicana Municipal Airport,CRS,KCRS,US,Corsicana,CRS,32.02738,-96.39804,America/Chicago,
C E 'Rusty' Williams Airport,,,US,,,32.06724,-93.76437,America/Chicago,
Cabaniss Field Naval Outlying Landing Field,,KNGW,US,Corpus Christi,,27.704426,-97.440578,America/Chicago,
Cabaniss Field,NGW,KNGW,US,Corpus Christi,CRP,27.70542,-97.4404,America/Chicago,
Cable Airport,CCB,KCCB,US,Upland,CCB,34.11244,-117.68473,America/Los_Angeles,
Cabool Memorial Airport,,KTVB,US,Cabool,,37.13001,-92.08671,America/Chicago,
Cairns Army Airfield (Fort Rucker),OZR,KOZR,US,Fort Rucker/Ozark,DHN,31.2766,-85.71477,America/Chicago,
Cairo Airport,CIR,KCIR,US,Cairo,CIR,37.06422,-89.21924,America/Chicago,
Calaveras County Airport-Maury Rasmussen Field,,KCPU,US,,,38.14769,-120.64814,America/Los_Angeles,
Caldwell Industrial Airport,,KEUL,US,Boise,BOI,43.64183,-116.63541,America/Boise,
Caldwell Municipal Airport,,KRWV,US,Caldwell,CLL,30.51548,-96.70414,America/Chicago,
Caledonia County Airport,LLX,KCDA,US,Lyndonville,LLX,44.57103,-72.01649,America/New_York,
"Calexico, Calexico International Airport",,KCWL,US,Calexico,CXL,32.66944,-115.51333,America/Los_Angeles,
Calexico International Airport,CXL,KCXL,US,Calexico,CXL,32.66746,-115.51556,America/Los_Angeles,
Calhoun County Airport,,KPKV,US,Port Lavaca,VCT,28.65389,-96.68111,America/Chicago,
Calverton Executive Airpark,CTO,,US,Calverton,WSH,40.92045,-72.79388,America/New_York,
Camarillo Airport,,KCMA,US,Camarillo,OXR,34.21362,-119.0951,America/Los_Angeles,
Cambridge-Dorchester Airport,CGE,KCGE,US,Cambridge,SBY,38.53947,-76.03249,America/New_York,
Cambridge Municipal Airport,,KCBG,US,Cambridge,,45.5583,-93.26467,America/Chicago,
Cambridge Municipal Airport,,KCDI,US,Cambridge,ZZV,39.97622,-81.57867,America/New_York,
Cambridge Municipal Airport,,KCSB,US,Cambridge,,40.30392,-100.15939,America/Chicago,
Cameron Memorial Airport,,KEZZ,US,Shoal Township,STJ,39.72841,-94.27424,America/Chicago,
Camilla Mitchell County Airport,,KCXU,US,Camilla,,31.21315,-84.235396,America/New_York,
Camp Edwards Heliport,FMH,KFMH,US,Falmouth,FMH,41.6715,-70.5642,America/New_York,
Campbell County Airport,,KJAU,US,Jacksboro,,36.33645,-84.16193,America/New_York,
Canandaigua Airport,IUA,,US,Ontario County IDA,,42.908902,-77.325226,America/New_York,
Candle 2 Airport,CDL,,US,Candle,,65.90652,-161.94154,America/Anchorage,
Cannon Field Airport,,,US,San Antonio,SAT,29.21607,-98.54946,America/Chicago,
Cannon Air Force Base,CVS,KCVS,US,Clovis,CVN,34.392,-103.32071,America/Denver,
Canton Municipal Airport,CTK,,US,Canton,FSD,43.30867,-96.57007,America/Chicago,
Cantwell Airport,,PATW,US,Cantwell,,63.39111,-148.95556,America/Anchorage,
Canyonlands Field,CNY,KCNY,US,Moab,CNY,38.75914,-109.74707,America/Denver,
Cape Cod Airfield,,,US,New Bedford,EWB,41.68531,-70.40665,America/New_York,
Cape Fear Regional Jetport/Howie Franklin Field,,KSUT,US,Southport,ILM,33.92882,-78.07282,America/New_York,
Cape Girardeau Municipal Airport,CGI,KCGI,US,Cape Girardeau,CGI,37.22533,-89.57065,America/Chicago,
Cape Lisburne LRRS Airport,LUR,PALU,US,Cape Lisburne,LUR,68.87513,-166.11002,America/Nome,27.0
Cape May County Airport,WWD,KWWD,US,Wildwood,WWD,39.00928,-74.90795,America/New_York,
Cape Newenham LRRS Airport,EHM,PAEH,US,Cape Newenham,,58.64639,-162.0625,America/Nome,
Cape Pole Seaplane Base,CZP,,US,Cape Pole,,55.9665,-133.79615,America/Metlakatla,
Cape Romanzof LRRS Airport,CZF,PACZ,US,Cape Romanzof,,61.78028,-166.03861,America/Nome,
Cape Sarichef Airport,WSF,PACS,US,Cape Sarichef,,54.58266,-164.90556,America/Anchorage,
Cape Spencer Coast Guard Heliport,CSP,,US,,,58.19925,-136.63994,America/Juneau,
Capital City Airport,HAR,KCXY,US,Harrisburg,HAR,40.22056,-76.85354,America/New_York,
Capital City Airport,FFT,KFFT,US,Frankfort,FFT,38.18229,-84.9044,America/New_York,
Capitol Airport,,,US,Waukesha,UES,43.08569,-88.17968,America/Chicago,
Captain Jack Thomas/El Dorado Airport,EDK,KEQA,US,El Dorado,ICT,37.77764,-96.81698,America/Chicago,
Carbon County Airport,PUC,KPUC,US,Price,PUC,39.60969,-110.75349,America/Denver,
Caribou Municipal Airport,CAR,KCAR,US,Caribou,,46.87143,-68.01725,America/New_York,
Carl R Keller Field Airport,,KPCW,US,Port Clinton,SKY,41.50937,-82.87016,America/New_York,
Carmi Municipal Airport,,KCUL,US,Carmi,EVV,38.08949,-88.12281,America/Chicago,
"Caro, Tuscola Area Airport",TZC,KCFS,US,Caro,TZC,43.45861,-83.44528,America/Detroit,
Carrabelle-Thompson Airport,,,US,,,29.84359,-84.69634,America/New_York,
Carrizozo Municipal Airport,,,US,,,33.64809,-105.89022,America/Denver,
Carroll County Airport,,KHZD,US,Huntingdon,,36.08666,-88.46592,America/Chicago,
Carroll County Regional Airport/Jack B Poage Field,,KDMW,US,Westminster,FDK,39.60835,-77.00453,America/New_York,
Carroll County-Tolson Airport,,KTSO,US,Carrollton,,40.56272,-81.07916,America/New_York,
Carson Airport,CSN,KCXP,US,Carson City,CSN,39.19184,-119.73658,America/Los_Angeles,
Cartersville Airport,,KVPC,US,Cartersville,MGE,34.12314,-84.84999,America/New_York,
Casa Grande Municipal Airport,CGZ,KCGZ,US,Casa Grande,CGZ,32.95478,-111.76735,America/Phoenix,
Cascade Airport,ICS,,US,Cascade,,44.49378,-116.01624,America/Boise,
Cascade Locks-Stevenson State Airport,CZK,KCZK,US,,,45.66651,-121.88869,America/Los_Angeles,
Casco Cove Coast Guard Station,ATU,PAAT,US,Attu,,52.83261,173.17962,America/Adak,
Casper-Natrona County International Airport,CPR,KCPR,US,Casper,CPR,42.90802,-106.46392,America/Denver,931.0
Castle Airport,MER,KMER,US,Merced,MCE,37.37344,-120.56622,America/Los_Angeles,
Castroville Municipal Airport,,KCVB,US,Castroville,SAT,29.34306,-98.84826,America/Chicago,
Catalina Airport,AVX,KAVX,US,Avalon,AVX,33.40424,-118.4159,America/Los_Angeles,
Catalina Air-Sea Terminal Heliport,SPQ,,US,San Pedro,TOA,33.74903,-118.27465,America/Los_Angeles,
Cattaraugus County-Olean Airport,OLE,KOLE,US,Olean,OLE,42.24142,-78.37308,America/New_York,
Cavern City Air Terminal,CNM,KCNM,US,Carlsbad,CNM,32.33734,-104.263,America/Denver,
Cecil Airport,VQQ,KVQQ,US,Jacksonville,JAX,30.21861,-81.87667,America/New_York,
Cedar City Regional Airport,CDC,KCDC,US,Cedar City,CDC,37.70137,-113.09801,America/Denver,321.0
Center Island Airport,CWS,,US,Center Island,ODW,48.4901,-122.83212,America/Los_Angeles,
Centerville Municipal Airport,GHM,KGHM,US,Centerville,MRC,35.83603,-87.44496,America/Chicago,
Centerville Municipal Airport,,KTVK,US,Centerville,,40.68875,-92.90132,America/Chicago,
Central Colorado Regional Airport,,KAEJ,US,Buena Vista,,38.812906,-106.120062,America/Denver,
Central Illinois Regional Airport at Bloomington-Normal,BMI,KBMI,US,Bloomington/Normal,BMI,40.48299,-88.91395,America/Chicago,1242.0
Central Jersey Regional Airport,JVI,,US,Manville,JVI,40.5245,-74.5982,America/New_York,
Central Maine Airport of Norridgewock,OWK,KOWK,US,Norridgewock,,44.71736,-69.86319,America/New_York,
Central Nebraska Regional Airport,GRI,KGRI,US,Grand Island,GRI,40.96723,-98.30895,America/Chicago,401.0
Central Airport,CEM,PARL,US,Central,CEM,65.57361,-144.78306,America/Anchorage,
Central Wisconsin Airport,CWA,KCWA,US,Mosinee,AUW,44.7783,-89.66623,America/Chicago,
Centralia Municipal Airport,ENL,KENL,US,Centralia,,38.51477,-89.09201,America/Chicago,
Centre-Piedmont-Cherokee County Regional Airport,,KPYP,US,Centre,,34.09035,-85.61368,America/Chicago,
Centreville,,KCKL,US,Tuscaloosa,TCL,32.9,-87.25,America/Chicago,
Century City Heliport,CCD,,US,Los Angeles,LAX,34.060798645,-118.417999268,America/Los_Angeles,
Cessna Aircraft Field Airport,CEA,KCEA,US,Wichita,ICT,37.6486,-97.2506,America/Chicago,
Chadron Municipal Airport,CDR,KCDR,US,Chadron,CDR,42.83747,-103.09574,America/Denver,
Chalkyitsik Airport,CIK,PACI,US,Chalkyitsik,CIK,66.64926,-143.7276,America/Anchorage,
Challis Airport,CHL,KLLJ,US,Challis,,44.52298,-114.21756,America/Boise,
Chamberlain Municipal Airport,,,US,,,43.76667,-99.31833,America/Chicago,
Chan Gurney Municipal Airport,YKN,KYKN,US,Yankton,,42.91639,-97.38589,America/Chicago,
Chandalar Lake Airport,WCR,PALR,US,Chandalar Lake,,67.50278,-148.49083,America/Anchorage,
Chandelle Estates Airport,,,US,Dover,,39.205079,-75.483301,America/New_York,
Chandler Field,AXN,KAXN,US,Alexandria,AXN,45.86607,-95.39476,America/Chicago,
Chandler Municipal Airport,,KCHD,US,Chandler,SCF,33.26894,-111.8118,America/Phoenix,
Chandler Municipal Airport,,KCQB,US,,,35.72368,-96.8203,America/Chicago,
Chanute Martin Johnson Airport,CNU,KCNU,US,Chanute,,37.66838,-95.48693,America/Chicago,
Chariton Municipal Airport,,KCNC,US,Chariton,,41.01944,-93.35965,America/Chicago,
Charles B. Wheeler Downtown Airport,MKC,KMKC,US,Kansas City,MKC,39.12118,-94.59153,America/Chicago,
Charles City Municipal Airport,CCY,KCCY,US,Charles City,,43.07247,-92.61074,America/Chicago,
Charleston Executive Airport,,KJZI,US,Johns Island,CHS,32.69824,-80.00753,America/New_York,
Charleston International Airport,CHS,KCHS,US,Charleston,CHS,32.89851,-80.04037,America/New_York,10761.0
Charleston Municipal Airport,,,US,,,33.98711,-90.07969,America/Chicago,
Charlevoix Municipal Airport,,KCVX,US,Charlevoix,,45.30417,-85.27201,America/Detroit,
Charlotte Douglas International Airport,CLT,KCLT,US,Charlotte,CLT,35.2207,-80.94413,America/New_York,127060.0
Charlotte-Monroe Executive Airport,,KEQY,US,Monroe,CLT,35.02043,-80.61868,America/New_York,
Charlottesville-Albemarle Airport,CHO,KCHO,US,Charlottesville,CHO,38.13847,-78.45279,America/New_York,3405.0
Chase City Municipal Airport,,KCXE,US,Chase City,,36.79163,-78.50193,America/New_York,
Chase Field Industrial Airport,,,US,,,28.36912,-97.66017,America/Chicago,
Chase Field Industrial Airport,NIR,,US,Beeville,,28.362444,-97.661917,America/Chicago,
Chatham Municipal Airport,,KCQX,US,Chatham,,41.68844,-69.9889,America/New_York,
Chatham Seaplane Base,CYM,,US,Chatham,,57.51514,-134.94586,America/Sitka,
Chattanooga Metropolitan Airport,CHA,KCHA,US,Chattanooga,CHA,35.03507,-85.20357,America/New_York,3680.0
Chautauqua County-Dunkirk Airport,DKK,KDKK,US,Dunkirk,,42.49339,-79.27171,America/New_York,
Chautauqua County-Jamestown Airport,JHW,KJHW,US,Jamestown,JHW,42.15,-79.26667,America/New_York,
Cheboygan City-County Airport,,,US,,,45.65361,-84.51917,America/Detroit,
Cheboygan County Airport,,KSLH,US,Cheboygan,,45.653702,-84.519302,America/Detroit,
Chefornak Airport,CYF,PACK,US,Chefornak,CYF,60.15708,-164.28577,America/Nome,
Chehalis-Centralia Airport,CLS,KCLS,US,Chehalis,,46.67416,-122.98557,America/Los_Angeles,
Chena Hot Springs Airport,CEX,,US,Chena Hot Springs,,65.05183,-146.04743,America/Anchorage,
Chenega Bay Airport,NCN,PFCB,US,Chenega,NCN,60.07724,-147.9931,America/Anchorage,
Chennault International Airport,CWF,KCWF,US,Lake Charles,LCH,30.21426,-93.14827,America/Chicago,
Cheraw Municipal Airport/Lynch Bellinger Field,HCW,KCQW,US,Cheraw,,34.71073,-79.96047,America/New_York,
Chernofski Harbor Seaplane Base,KCN,,US,Chernofski Harbor,,53.40351,-167.54964,America/Adak,
Cherokee County Airport,,KCNI,US,,,34.30997,-84.42336,America/New_York,
Cherokee County Airport,JKV,KJSO,US,Jacksonville,,31.87077,-95.21724,America/Chicago,
Cherokee Municipal Airport,,KCKP,US,,,42.73082,-95.55556,America/Chicago,
Cherry Capital Airport,TVC,KTVC,US,Traverse City,TVC,44.7372,-85.57969,America/Detroit,1932.0
"Cherry Point, Marine Corps Air Station",,KNKT,US,New Bern,EWN,34.90087,-76.88073,America/New_York,
Chesapeake Municipal Airport,,KCPK,US,Virginia Beach,NTU,36.66404,-76.32189,America/New_York,
Chester Catawba Regional Airport,,KDCM,US,Chester,RKH,34.78931,-81.19564,America/New_York,
"Chester, Chester Airport",,KSNC,US,Chester,HVN,41.38389,-72.50583,America/New_York,
Chester County G O Carlson Airport,CTH,KMQS,US,Coatesville,CTH,39.9807,-75.86621,America/New_York,
Chevak Airport,VAK,PAVA,US,Chevak,VAK,61.53706,-165.60272,America/Nome,
Cheyenne County Municipal Airport,,KSYF,US,St Francis,,39.76385,-101.79795,America/Chicago,
Cheyenne Airport,CYS,KCYS,US,Cheyenne,CYS,41.15554,-104.8133,America/Denver,372.0
Cheyenne Mountain Space Force Station Heliport,,KCQJ,US,Colorado Springs,,38.738586,-104.835148,America/Denver,
Chicago/Aurora Municipal Airport,AUZ,KARR,US,Chicago/Aurora,AUZ,41.77086,-88.47285,America/Chicago,
Chicago Executive Airport,PWK,KPWK,US,Chicago/Prospect Heights/Wheeling,CHI,42.11662,-87.90058,America/Chicago,
Chicago Midway International Airport,MDW,KMDW,US,Chicago,CHI,41.7868,-87.74555,America/Chicago,2912.0
Chicago O'Hare International Airport,ORD,KORD,US,Chicago,CHI,41.97959,-87.90446,America/Chicago,177167.0
Chicago/Rockford International Airport,RFD,KRFD,US,Chicago/Rockford,RFD,42.20074,-89.09538,America/Chicago,117.0
Chickasha Municipal Airport,CHK,KCHK,US,Chickasha,OUN,35.09618,-97.96643,America/Chicago,
Chicken Airport,CKX,,US,Chicken,CKX,64.06662,-141.95117,America/Anchorage,
Chico Municipal Airport,CIC,KCIC,US,Chico,CIC,39.79516,-121.85942,America/Los_Angeles,
Chignik Bay Seaplane Base,KBW,,US,Chignik,,56.29567,-158.40099,America/Anchorage,
Chignik Fisheries Airport,KCG,PAJC,US,Chignik,KCQ,56.31778,-158.59083,America/Anchorage,
Chignik Lagoon Airport,KCL,,US,Chignik Flats,KCQ,56.31116,-158.53593,America/Anchorage,
Chignik Lake Airport,KCQ,PAJC,US,Chignik Lake,KCQ,56.25558,-158.7758,America/Anchorage,
Chignik Airport,KCQ,PAJC,US,Chignik,,56.31139,-158.37389,America/Anchorage,
Childress Municipal Airport,CDS,KCDS,US,Childress,,34.43367,-100.28845,America/Chicago,
Chillicothe Municipal Airport,,KCHT,US,Chillicothe,,39.78016,-93.49566,America/Chicago,
Chiloquin State Airport,CHZ,,US,Chiloquin,,42.57939,-121.87819,America/Los_Angeles,
Chino Airport,CNO,KCNO,US,Chino,CNO,33.97501,-117.63755,America/Los_Angeles,
Chinsegut Airport,,,US,,,28.61171,-82.368,America/New_York,
Chippewa County International Airport,CIU,KCIU,US,Kincheloe,SSM,46.25221,-84.47009,America/Detroit,374.0
Chippewa Valley Regional Airport,EAU,KEAU,US,Eau Claire,EAU,44.86524,-91.48488,America/Chicago,72.0
Chisana Airport,CZN,,US,Chisana,,62.07119,-142.04837,America/Anchorage,
Chistochina Airport,CZO,,US,Chistochina,,62.56267,-144.67179,America/Anchorage,
Chitina Airport,CXC,,US,Chitina,,61.58286,-144.42808,America/Anchorage,
Choctaw Nolf Airport,,KNFJ,US,Milton,,30.506901,-86.959702,America/Chicago,
Chomley Seaplane Base,CIV,,US,Chomley,,55.217,-132.21,America/Sitka,
Choteau Airport,,KCII,US,Choteau,,47.82136,-112.16872,America/Denver,
Christy Airstrip,,,US,,,34.01886,-119.85244,America/Los_Angeles,
Chuathbaluk Airport,CHU,PACH,US,Chuathbaluk,CHU,61.57912,-159.22562,America/Anchorage,
"Chulitna, Chulitna Airport",,PAEC,US,,,62.88333,-149.83333,America/Anchorage,
Cincinnati Municipal Lunken Airport,LUK,KLUK,US,Cincinnati,CVG,39.10333,-84.41861,America/New_York,
Cincinnati/Northern Kentucky International Airport,CVG,KCVG,US,Cincinnati,CVG,39.04614,-84.66217,America/New_York,20393.0
Cinder Park Airport,RCP,,US,Cinder Park,RCP,57.083056,-157.805556,America/Anchorage,
Circle City Airport,IRC,PACR,US,Circle,IRC,65.828,-144.076,America/Anchorage,
Circle Hot Springs Airport,CHP,,US,Circle Hot Springs,,65.48547,-144.61078,America/Anchorage,
Clare Municipal Airport,,,US,Mount Pleasant,MOP,43.83396,-84.74585,America/Detroit,
Claremont Municipal Airport,CNH,KCNH,US,Claremont,,43.37178,-72.36896,America/New_York,
Claremore Regional Airport,,KGCM,US,Claremore,,36.29244,-95.477,America/Chicago,
Clarence E Page Municipal Airport,,KRCE,US,Oklahoma City,OKC,35.48796,-97.81832,America/Chicago,
Clarion County Airport,,KAXQ,US,Clarion,,41.22466,-79.43988,America/New_York,
Clarion Municipal Airport,,KCAV,US,Clarion,,42.74192,-93.75883,America/Chicago,
Clark Regional Airport,,KJVY,US,Jeffersonville,SDF,38.3644,-85.74158,America/Kentucky/Louisville,
Clarks Point Airport,CLP,PFCL,US,Clarks Point,CLP,58.83369,-158.52971,America/Anchorage,
Clarksville Municipal Airport,,,US,,,35.4703,-93.43309,America/Chicago,
Clarksville/Red River County Airport,,KLBR,US,Paris,PRX,33.59306,-95.06333,America/Chicago,
Claxton Evans County Airport,,KCWV,US,Claxton,,32.195099,-81.869598,America/New_York,
Clay Center Municipal Airport,,KCYW,US,Clay Center,,39.39298,-97.15753,America/Chicago,
Clayton Municipal Airport,CAO,KCAO,US,Clayton,CAO,36.44586,-103.15466,America/Denver,
Clear Airport,,PACL,US,Clear,,64.30111,-149.12,America/Anchorage,
Clear Sky Lodge Airport,,,US,,,64.25679,-149.18709,America/Anchorage,
Clearfield-Lawrence Airport,,KFIG,US,Clearfield,,41.04922,-78.41446,America/New_York,
Clearview Airpark,,,US,Frederick,FDK,39.46667,-77.01667,America/New_York,
Clearwater Air Park,CLW,KCLW,US,Clearwater,CLW,27.97587,-82.75812,America/New_York,
Cleburne Municipal Airport,,KCPT,US,,,32.35459,-97.43419,America/Chicago,
Clemson-Oconee County Airport,CEU,KCEU,US,Clemson,CEU,34.67177,-82.88626,America/New_York,
Cleveland-Hopkins International Airport,CLE,KCLE,US,Cleveland,CLE,41.41083,-81.84944,America/New_York,15897.0
Cleveland Municipal,,,US,Cleveland,,30.3560096,-95.00781,America/Chicago,
Cleveland Municipal Airport,,KRNV,US,Cleveland,,33.75985,-90.7562,America/Chicago,
Cleveland Police Department 6th District Heliport,CGF,KCGF,US,Cleveland,CLE,41.55005,-81.56651,America/New_York,
Cleveland Regional Jetport,,KRZR,US,Cleveland,,35.211497,-84.799769,America/New_York,
Cliff Hatfield Memorial Airport,CLR,KCLR,US,Calipatria,BWC,33.13133,-115.51967,America/Los_Angeles,
Clinton Memorial Airport,,KGLY,US,Clinton,,38.35877,-93.68307,America/Chicago,
Clinton Municipal Airport,,KCCA,US,Clinton,,35.59839,-92.45082,America/Chicago,
Clinton Municipal Airport,CLK,KCLK,US,Clinton,CSM,35.53811,-98.93286,America/Chicago,
Clinton Municipal Airport,CWI,KCWI,US,Clinton,CWI,41.83086,-90.32902,America/Chicago,
Clinton-Sherman Airport,CSM,KCSM,US,Clinton,,35.34033,-99.19897,America/Chicago,
Clintonville Municipal Airport,CLI,KCLI,US,Clintonville,,44.61359,-88.73121,America/Chicago,
Cloquet Carlton County Airport,,KCOQ,US,Cloquet,,46.69994,-92.50547,America/Chicago,
Clovis Municipal Airport,CVN,KCVN,US,Clovis,CVN,34.42646,-103.07828,America/Denver,
Coastal Carolina Regional Airport,EWN,KEWN,US,New Bern,EWN,35.07719,-77.04314,America/New_York,653.0
Cochise County Airport,CWX,,US,Willcox,,32.24427,-109.89362,America/Phoenix,
Coeur d'Alene Airport,COE,KCOE,US,Coeur d'Alene,COE,47.77407,-116.81936,America/Los_Angeles,
Coffee Point Airport,CFA,,US,Coffee Point,CFA,58.216667,-157.5,America/Anchorage,
Coffey County Airport,,KUKL,US,Burlington,EMP,38.3023,-95.72731,America/Chicago,
Coffeyville Municipal Airport,CFV,KCFV,US,Coffeyville,,37.09535,-95.57414,America/Chicago,
Coffman Cove Seaplane Base,KCC,,US,Coffman Cove,KCC,56.01075,-132.83275,America/Metlakatla,
Cold Bay Airport,CDB,PACD,US,Cold Bay,CDB,55.20556,-162.72417,America/Nome,858.0
Coldfoot Airport,CXF,PACX,US,Coldfoot,CXF,67.25163,-150.20657,America/Anchorage,
Coleman Municipal Airport,COM,KCOM,US,Coleman,,31.84424,-99.40785,America/Chicago,
Coles County Memorial Airport,MTO,KMTO,US,Mattoon,,39.48125,-88.28154,America/Chicago,
College Park Airport,CGS,KCGS,US,College Park,CGS,38.97998,-76.92313,America/New_York,
Collegedale Municipal Airport,,KFGU,US,Apison,CHA,35.04115,-85.02311,America/New_York,
Colonel James Jabara Airport,,KAAO,US,Wichita,ICT,37.7475,-97.22111,America/Chicago,
Colorado City Municipal Airport,,KAZC,US,Colorado City,,36.95221,-113.01716,America/Phoenix,
Colorado Creek Airport,KCR,,US,Colorado Creek,,63.56429,-156.00246,America/Anchorage,
Colorado Springs Airport,COS,KCOS,US,Colorado Springs,COS,38.80583,-104.70136,America/Denver,3552.0
Columbia Airport,COA,,US,Columbia,,38.02914,-120.4123,America/Los_Angeles,
Columbia County Airport,HCC,,US,Hudson,HCC,42.2939,-73.71204,America/New_York,
Columbia Metropolitan Airport,CAE,KCAE,US,Columbia,CAE,33.94502,-81.12543,America/New_York,5435.0
Columbia Regional Airport,COU,KCOU,US,Columbia,COU,38.81809,-92.21963,America/Chicago,841.0
Columbus Bakalar Municipal Airport,CLU,KBAK,US,Columbus,CLU,39.26227,-85.89555,America/Indiana/Indianapolis,
Columbus County Municipal Airport,,KCPC,US,Whiteville,,34.27378,-78.71307,America/New_York,
Columbus Air Force Base,CBM,KCBM,US,Columbus,UBS,33.64383,-88.44383,America/Chicago,
Columbus Airport,CSG,KCSG,US,Columbus,CSG,32.51625,-84.93882,America/New_York,511.0
Columbus-Lowndes County Airport,UBS,KUBS,US,Columbus,UBS,33.46487,-88.38187,America/Chicago,
Columbus Municipal Airport,CUS,,US,Columbus,,31.80878,-107.65565,America/Denver,
Columbus Municipal Airport,OLU,KOLU,US,Columbus,OLU,41.44369,-97.34264,America/Chicago,
Comanche County-City Airport,,KMKN,US,Comanche,,31.91681,-98.6006,America/Chicago,
Commodore Center Heliport,JMC,KJMC,US,San Rafael,SRF,37.87882,-122.51442,America/Los_Angeles,
Compton/Woodley Airport,CPM,KCPM,US,Compton,TOA,33.88906,-118.24203,America/Los_Angeles,
Concord Municipal Airport,CON,KCON,US,Concord,CON,43.20341,-71.50146,America/New_York,
Concord-Padgett Regional Airport,USA,KJQF,US,Concord,USA,35.38555,-80.71097,America/New_York,
Condron Army Airfield,WSD,KWSD,US,Las Cruces,LRU,32.33549,-106.40586,America/Denver,
Conoco Incorporated Venice Heliport,,,US,,,29.25939,-89.35505,America/Chicago,
Converse County Airport,DGW,KDGW,US,Douglas,,42.79719,-105.38637,America/Denver,
Conway-Horry County Airport,,KHYW,US,Conway,MYR,33.82803,-79.1239,America/New_York,
Conway Regional Airport,,KCXW,US,Conway,,35.019889,-92.555111,America/Chicago,
Cook Municipal Airport,,KCQM,US,Cook,,47.81964,-92.68325,America/Chicago,
Cooperstown-Westville Airport,COP,,US,Cooperstown,,42.62848,-74.89163,America/New_York,
Copper Center 2 Airport,CZC,,US,Copper Center,,61.94792,-145.30331,America/Anchorage,
Coral Creek Airport,,,US,Placida,,26.856834,-82.250397,America/New_York,
Corcoran Airport,CRO,KCRO,US,Corcoran,CRO,36.09976,-119.59346,America/Los_Angeles,
Cordova Municipal Airport,CKU,,US,Cordova,,60.5439,-145.7267,America/Anchorage,
"Cordova, Smith Airport",,KCDV,US,,,60.48889,-145.45111,America/Anchorage,
Corning Municipal Airport,,KCRZ,US,Corning,,40.99732,-94.75572,America/Chicago,
Corona Municipal Airport,,KAJO,US,Corona,CCB,33.8968,-117.60189,America/Los_Angeles,
"Corpus Christi, Corpus Christi Naval Air Station/Truax Field",NGP,KNGP,US,Corpus Christi,CRP,27.6925,-97.29111,America/Chicago,
Corpus Christi International Airport,CRP,KCRP,US,Corpus Christi,CRP,27.77058,-97.50138,America/Chicago,2241.0
Cortez-Montezuma County Airport,CEZ,KCEZ,US,Cortez,CEZ,37.30277,-108.62871,America/Denver,
Cortland County Airport-Chase Field,CTX,,US,Cortland,CTX,42.59486,-76.21562,America/New_York,
Corvallis Municipal Airport,CVO,KCVO,US,Corvallis,CVO,44.50207,-123.28573,America/Los_Angeles,
Cottonwood Airport,CTW,,US,Cottonwood,CTW,34.73327,-112.03787,America/Phoenix,
Cotulla-La Salle County Airport,COT,KCOT,US,Cotulla,,28.45833,-99.22028,America/Chicago,
Coulter Field,CFD,KCFD,US,Bryan,CLL,30.71712,-96.33579,America/Chicago,
Council Bluffs Municipal Airport,CBF,KCBF,US,Council Bluffs,OMA,41.25861,-95.76056,America/Chicago,
Council Airport,CIL,,US,Council,,64.89545,-163.6946,America/Nome,
County Memorial Airport,,KEIW,US,New Madrid,,36.53438,-89.60069,America/Chicago,
Coupville Airpark,,KNRA,US,Oak Harbor,ODW,48.19038,-122.64294,America/Los_Angeles,
Courtland Airport,,,US,Decatur,DCU,34.65857,-87.34611,America/Chicago,
Covington Municipal Airport,,,US,,,33.63428,-83.85314,America/New_York,
Covington-Vincent Airport (Private Use),,,US,,,30.50873,-90.15258,America/Chicago,
Cox Field Airport,PRX,KPRX,US,Paris,PRX,33.6365,-95.45079,America/Chicago,
Cozad Municipal Airport,,KCZD,US,Cozad,,40.86917,-100.00373,America/Chicago,
Craig Field Airport,SEM,KSEM,US,Selma,,32.34375,-86.98777,America/Chicago,
Craig-Moffat Airport,CIG,KCAG,US,Craig,,40.49497,-107.52201,America/Denver,
Craig Municipal Airport,CRG,KCRG,US,Jacksonville,JAX,30.33635,-81.51426,America/New_York,
Craig Seaplane Base,CGA,,US,Craig,CGA,55.47861,-133.14778,America/Juneau,
Crane County Airport,CCG,,US,Crane,,31.40681,-102.356,America/Chicago,
Crane Island Airfield,CKR,,US,Crane Island,BLI,48.59866,-122.99912,America/Los_Angeles,
Cranland Airport,,,US,Quincy,MQI,42.02514,-70.83811,America/New_York,
Crawford County Airport,,KRSV,US,,,39.01296,-87.64338,America/Chicago,
Crawfordsville Municipal Airport,,KCFJ,US,,,39.98045,-86.91684,America/Indiana/Indianapolis,
Creech Army Air Field Heliport,LSD,,US,Lexington,LEX,38.08341,-84.31632,America/New_York,
Creech Air Force Base,INS,KINS,US,Indian Springs,,36.58333,-115.66667,America/Los_Angeles,
Creston Municipal Airport,CSQ,KCSQ,US,Creston,,41.02138,-94.36329,America/Chicago,
Crete Municipal Airport,,KCEK,US,Crete,LNK,40.6216,-96.92723,America/Chicago,
Crisp County-Cordele Airport,,KCKF,US,Cordele,,31.98545,-83.77399,America/New_York,
Crooked Creek Airport,CKD,PACJ,US,Crooked Creek,CKD,61.86616,-158.13227,America/Anchorage,
Crookston Municipal Airport-Kirkwood Field,CKN,KCKN,US,Crookston,,47.84164,-96.62173,America/Chicago,
Cross City Airport,CTY,KCTY,US,Cross City,,29.6332,-83.10845,America/New_York,
Crossville Memorial Airport,CSV,KCSV,US,Crossville,CSV,35.95118,-85.08496,America/Chicago,
Crows Landing Naval Auxiliary Landing Field,NRC,KNRC,US,,,37.4,-121.1,America/Los_Angeles,
Crystal Airport,MIC,KMIC,US,Minneapolis,MSP,45.06094,-93.35515,America/Chicago,
Crystal Lake Airport,CYE,,US,Crystal Lake,CYE,36.3436,-94.4434,America/Chicago,
Crystal River Airport,,KCGC,US,Crystal River,,28.86804,-82.57427,America/New_York,
Cuba Municipal Airport,,KUBX,US,Cuba,,38.06708,-91.42765,America/Chicago,
Cuddihy Field Airport,CUX,,US,Corpus Christi,CRP,27.72114,-97.51277,America/Chicago,
Cuero Municipal Airport,,,US,,,29.08359,-97.26693,America/Chicago,
Culberson County Airport,VHN,KVHN,US,Van Horn,VHN,31.06127,-104.78639,America/Chicago,
Cullman Regional Airport-Folsom Field,,KCMD,US,Cullman,,34.26792,-86.85971,America/Chicago,
Culpeper County Airport,,KCJR,US,Manassas,MNZ,38.52651,-77.85861,America/New_York,
Cumberland Municipal Airport,,KUBE,US,Cumberland,,45.50778,-91.97832,America/Chicago,
Currituck County Regional Airport,,KONX,US,Maple,,36.39889,-76.01611,America/New_York,
Curtis L. Brown Jr. Field,,KEYF,US,Elizabethtown,LBT,34.60464,-78.58177,America/New_York,
Cushing Municipal Airport,CUH,KCUH,US,Cushing,SWO,35.94979,-96.77308,America/Chicago,
Custer County Airport,,KCUT,US,Custer,,43.73332,-103.61853,America/Denver,
Custer Airport,,KTTF,US,Monroe,,41.93278,-83.43702,America/Detroit,
Cut Bank Municipal Airport,CTB,KCTB,US,Cut Bank,CTB,48.60832,-112.377,America/Denver,
Dade-Collier Training and Transition Airport,TNT,KTNT,US,Miami,TNT,25.86641,-80.90023,America/New_York,
Dahl Creek Airport,DCK,,US,Dahl Creek,,66.94334,-156.90467,America/Anchorage,
Dahlgren Naval Surface Warfare Center Airport,DGN,KNDY,US,Dahlgren,,38.33231,-77.0395,America/New_York,
Dalhart Municipal Airport,DHT,KDHT,US,Dalhart,,36.02226,-102.5477,America/Chicago,
Dallas CBD Vertiport,JDB,,US,Dallas,DFW,32.77171,-96.80219,America/Chicago,
Dallas Executive Airport,RBD,KRBD,US,Dallas,DFW,32.68097,-96.86834,America/Chicago,
Dallas/Fort Worth International Airport,DFW,KDFW,US,Dallas-Ft Worth,DFW,32.89595,-97.0372,America/Chicago,172447.0
Dallas Love Field,DAL,KDAL,US,Dallas,DFW,32.84707,-96.85195,America/Chicago,1777.0
Dalton Municipal Airport,DNN,KDNN,US,Dalton,DNN,34.72175,-84.86911,America/New_York,
Danbury Municipal Airport,DXR,KDXR,US,Danbury,DXR,41.37148,-73.48151,America/New_York,
Dane County Regional Airport,MSN,KMSN,US,Madison,MSN,43.13651,-89.3458,America/Chicago,6236.0
Danger Bay Airport,DGB,,US,,,58.11843,-152.55426,America/Anchorage,
Daniel Field Airport,DNL,KDNL,US,Augusta,AGS,33.46653,-82.03928,America/New_York,
Daniel K. Inouye International Airport,HNL,PHNL,US,Honolulu,HNL,21.32452,-157.92507,Pacific/Honolulu,33498.0
Danielson Airport,,KLZD,US,Danielson,SFZ,41.82114,-71.90174,America/New_York,
Dannelly Field,MGM,KMGM,US,Montgomery,MGM,32.30014,-86.3933,America/Chicago,1741.0
Dansville Municipal Airport,DSV,KDSV,US,Dansville,,42.5709,-77.7125,America/New_York,
Danville Regional Airport,DAN,KDAN,US,Danville,DAN,36.57432,-79.33978,America/New_York,
Dare County Regional Airport,MEO,KMQI,US,Manteo,MEO,35.91741,-75.70013,America/New_York,
Darke County Airport,,KVES,US,Versailles,,40.20435,-84.53138,America/New_York,
Darlington County Jetport,,KUDG,US,Darlington,FLO,34.44917,-79.89028,America/New_York,
Davenport Municipal Airport,DVN,KDVN,US,Davenport,DVN,41.61142,-90.58903,America/Chicago,
David Wayne Hooks Memorial Airport,DWH,KDWH,US,Houston,HOU,30.06189,-95.55272,America/Chicago,
Davidson County Airport,,KEXX,US,Lexington,SRW,35.78069,-80.30255,America/New_York,
Daviess County Airport,,KDCY,US,Washington,,38.69534,-87.1316,America/Indiana/Vincennes,
Davis Field Airport,MKO,KMKO,US,Muskogee,MKO,35.66126,-95.35922,America/Chicago,
Davis Monthan Air Force Base,DMA,KDMA,US,Tucson,TUS,32.16894,-110.88067,America/Phoenix,
Davison Army Airfield,DAA,KDAA,US,Fort Belvoir,WAS,38.71345,-77.1809,America/New_York,
Dawson Community Airport,GDV,KGDV,US,Glendive,GDV,47.13862,-104.80746,America/Denver,
Day Airport,QZX,,US,Romeoville,LOT,41.65003,-88.15006,America/Chicago,
Dayton-Wright Brothers Airport,MGY,KMGY,US,Dayton,DAY,39.59131,-84.22844,America/New_York,
Daytona Beach International Airport,DAB,KDAB,US,Daytona Beach,DAB,29.18464,-81.06052,America/New_York,1621.0
De Kalb County Airport,,KGWB,US,Auburn,,41.307201,-85.0644,America/Indiana/Indianapolis,
Deadhorse Airport,SCC,PASC,US,Deadhorse,SCC,70.19472,-148.465,America/Anchorage,
Decatur County Industrial Air Park,BGE,KBGE,US,Bainbridge,,30.9713,-84.63742,America/New_York,
Decatur Hi-Way Airport,,KDCR,US,Fort Wayne,FWA,40.83755,-84.86246,America/Indiana/Indianapolis,
Decatur Airport,DEC,KDEC,US,Decatur,DEC,39.83448,-88.86646,America/Chicago,319.0
Decatur Municipal Airport,,KLUD,US,Decatur,,33.25444,-97.58056,America/Chicago,
Decatur Shores Airport,DTR,,US,Decatur,ODW,48.49983,-122.81378,America/Los_Angeles,
Decorah Municipal Airport,DEH,KDEH,US,Decorah,,43.27525,-91.73932,America/Chicago,
Deer Harbor Seaplane Base,DHB,,US,Orcas Island,BLI,48.62022,-123.00353,America/Los_Angeles,
Deer Lodge-City-Co,,,US,Deer Lodge,,46.438167,-112.769833,America/Denver,
Deer Park Airport,,KDEW,US,Deer Park,GEG,47.96851,-117.42244,America/Los_Angeles,
Deering Airport,DRG,PADE,US,Deering,DRG,66.06876,-162.76709,America/Nome,
Defiance Memorial Airport,DFI,KDFI,US,Defiance,,41.33727,-84.42856,America/New_York,
DeFuniak Springs,,,US,Fort Walton Beach,VPS,30.7325,-86.15315,America/Chicago,
Dekalb-Peachtree Airport,PDK,KPDK,US,Atlanta,ATL,33.87737,-84.30456,America/New_York,
DeKalb Taylor Municipal Airport,,KDKB,US,DeKalb,AUZ,41.92975,-88.71342,America/Chicago,
Del Rio International Airport,DRT,KDRT,US,Del Rio,DRT,29.3719,-100.92343,America/Chicago,
DeLand Municipal Airport-Sidney H Taylor Field,,KDED,US,Deland,DAB,29.0632,-81.2822,America/New_York,
Delano Municipal Airport,,KDLO,US,Delano,,35.74519,-119.23833,America/Los_Angeles,
Delaware Airpark,,,US,Dover-Cheswold,DOV,39.21764,-75.59598,America/New_York,
Delaware County Regional Airport,MIE,KMIE,US,Muncie,MIE,40.24026,-85.39122,America/Indiana/Indianapolis,
Delaware Municipal Airport - Jim Moore Field,,KDLZ,US,Delaware,MNN,40.28158,-83.11282,America/New_York,
Delhi Municipal,DQO,,US,Delhi,,32.507,-91.637306,America/Chicago,
Delta County Airport,ESC,KESC,US,Escanaba,ESC,45.71869,-87.0942,America/Detroit,
Delta Junction Airport,DJN,PABI,US,Delta Junction,DJN,64.05187,-145.72975,America/Anchorage,
Delta Municipal Airport,DTA,KDTA,US,Delta,,39.38688,-112.5022,America/Denver,
Delta Regional Airport,,KDRP,US,Colt,,35.1200556,-90.8265,America/Chicago,
Deming Municipal Airport,DMN,KDMN,US,Deming,,32.26231,-107.72058,America/Denver,
Demopolis Municipal Airport,,KDYA,US,Demopolis,,32.46149,-87.95356,America/Chicago,
Denison Municipal Airport,DNS,KDNS,US,Denison,,41.98638,-95.38055,America/Chicago,
Dennis F Cantrell Field,,KCWS,US,Jacksonville,LRF,35.08388,-92.43052,America/Chicago,
Denton Municipal Airport,,KDTO,US,,,33.20206,-97.19807,America/Chicago,
Denver International Airport,DEN,KDEN,US,Denver,DEN,39.85891,-104.67326,America/Denver,100565.0
Derby Field,LOL,KLOL,US,Lovelock,LOL,40.06797,-118.56265,America/Los_Angeles,
Des Moines International Airport,DSM,KDSM,US,Des Moines,DSM,41.53934,-93.6586,America/Chicago,6811.0
Desert Rock Airport,DRA,KDRA,US,Mercury,,36.6194,-116.03281,America/Los_Angeles,
Destin Executive Airport,DSI,KDTS,US,Destin,DSI,30.4002,-86.47134,America/Chicago,
Destin-Fort Walton Beach Airport,VPS,KVPS,US,Valparaiso,VPS,30.49624,-86.54943,America/Chicago,
Detroit City Airport,DET,KDET,US,Detroit,DTT,42.4092,-83.00964,America/Detroit,
Detroit Lakes Airport,DTL,KDTL,US,Detroit Lakes,DTL,46.82496,-95.88588,America/Chicago,
Detroit Metropolitan Wayne County Airport,DTW,KDTW,US,Detroit,DTT,42.22205,-83.35147,America/Detroit,65006.0
Devils Lake Municipal Airport,DVL,KDVL,US,Devils Lake,DVL,48.11361,-98.9079,America/Chicago,
Devils Mountain Lodge Airport,,PABN,US,,,62.39868,-142.99507,America/Anchorage,
Dexter B. Florence Memorial Field,,KADF,US,,,34.09972,-93.06611,America/Chicago,
Dexter Municipal Airport,,KDXE,US,Dexter,,36.78242,-89.93905,America/Chicago,
Dickinson Municipal Airport,DIK,KDIK,US,Dickinson,DIK,46.79584,-102.80046,America/Denver,
Dillant-Hopkins Airport,EEN,KEEN,US,Keene,EEN,42.89841,-72.27009,America/New_York,
Dillingham Airport,DLG,PADL,US,Dillingham,DLG,59.04148,-158.51183,America/Anchorage,2611.0
Dillingham Airfield,HDH,PHDH,US,Mokuleia,HNL,21.57875,-158.2074,Pacific/Honolulu,
Dillon County Airport,DLL,KDLC,US,Dillon,LBT,34.44967,-79.36919,America/New_York,
Dillon Airport,DLN,KDLN,US,Dillon,DLN,45.2552,-112.55335,America/Denver,
Dimmit County Airport,CZT,KCZT,US,Carrizo Springs,,28.52353,-99.82634,America/Chicago,
Diomede Island Airport,DIO,KDIO,US,,,65.75005,-168.94981,America/Nome,
Dobbins Air Reserve Base,MGE,KMGE,US,Marietta,MGE,33.91538,-84.51632,America/New_York,
Dodge Center Airport,,KTOB,US,Dodge Center,RST,44.02164,-92.83441,America/Chicago,
Dodge City Regional Airport,DDC,KDDC,US,Dodge City,DDC,37.76045,-99.96697,America/Chicago,319.0
Dodge County Airport,UNU,KUNU,US,Juneau,,43.43009,-88.69689,America/Chicago,
Dona Ana Co At Santa Teresa,,,US,Santa Teresa,,32.009861,-106.748139,America/Denver,
Dona Ana County International Jetport at Santa Teresa,,KDNA,US,El Paso,ELP,31.88083,-106.70472,America/Denver,
Donaldson Center Airport,GDC,KGYH,US,Greenville,GSP,34.75662,-82.3756,America/New_York,
Donlin Creek Airport,,PFCR,US,Crooked Creek,,62.031757,-158.234251,America/Anchorage,
Door County Cherryland Airport,SUE,KSUE,US,Sturgeon Bay,,44.84152,-87.42485,America/Chicago,
Dothan Regional Airport,DHN,KDHN,US,Dothan,DHN,31.32411,-85.4506,America/Chicago,373.0
Double Eagle II Airport,,KAEG,US,Albuquerque,ABQ,35.14504,-106.79503,America/Denver,
Double H Ranch Airport,,,US,,,30.22938,-90.97343,America/Chicago,
Douglas Municipal Airport,DGL,KDGL,US,Douglas,,31.34353,-109.50604,America/Phoenix,
Douglas Municipal Airport,,KDQH,US,Douglas,,31.4777,-82.85959,America/New_York,
Douthitt Strip,,,US,Brawley,BWC,32.78894,-115.52972,America/Los_Angeles,
Dover Air Force Base,DOV,KDOV,US,Dover,DOV,39.12749,-75.47136,America/Indiana/Indianapolis,
Downtown Airport,,KOLR,US,Springfield,SGF,37.2231,-93.24398,America/Chicago,
Downtown Manhattan Heliport,JRB,KJRB,US,New York,NYC,40.70147,-74.00905,America/New_York,
Doylestown Airport,DYL,KDYL,US,Doylestown,PCT,40.33344,-75.12462,America/New_York,
Drake Field,FYV,KFYV,US,Fayetteville,FYV,36.00508,-94.16993,America/Chicago,
Drift River Airport,DRF,,US,Kenai,,60.58887,-152.16198,America/Anchorage,
Driftwood Bay Air Force Station Airport,,PAAM,US,Dutch Harbor,,53.9729499817,-166.858459473,America/Nome,
Driggs-Reed Memorial Airport,,KDIJ,US,Driggs,RXE,43.74167,-111.09778,America/Boise,
Drummond Airport,DRU,,US,Drummond,,46.62185,-113.20655,America/Denver,
Drummond Island Airport,DRE,KDRM,US,Drummond Island,,46.00944,-83.73927,America/Detroit,
"Dryden, Terrel County Airport",,,US,,,30.04806,-102.21306,America/Chicago,
Du Bois-Jefferson County Airport,DUJ,KDUJ,US,Dubois,DUJ,41.17812,-78.89864,America/New_York,376.0
Dubois Municipal Airport,DBS,,US,Dubois,,44.16658,-112.22582,America/Boise,
Dubois Municipal Airport,,KDUB,US,,,43.54927,-109.68874,America/Denver,
Dubuque Regional Airport,DBQ,KDBQ,US,Dubuque,DBQ,42.40278,-90.70902,America/Chicago,
Duke Field,EGI,KEGI,US,Crestview,CEW,30.6492,-86.52544,America/Chicago,
Duluth International Airport,DLH,KDLH,US,Duluth,DLH,46.84188,-92.1938,America/Chicago,930.0
Dunsmuir Municipal Airport-Mott Airport,MHS,,US,,,41.26609,-122.27307,America/Los_Angeles,
DuPage Airport,DPA,KDPA,US,Chicago/West Chicago,CHI,41.90642,-88.24841,America/Chicago,
Durango-La Plata County Airport,DRO,KDRO,US,Durango,DRO,37.15139,-107.75423,America/Denver,
Dutchess County Airport,POU,KPOU,US,Poughkeepsie,POU,41.62448,-73.88258,America/New_York,
Dwight Airport,,KDTG,US,,,41.13267,-88.43535,America/Chicago,
Dyersburg Municipal Airport,,KDYR,US,,,36.00424,-89.40424,America/Chicago,
Dyess Air Force Base,DYS,KDYS,US,Abilene,ABI,32.42013,-99.85731,America/Chicago,
Eagle County Regional Airport,EGE,KEGE,US,Eagle,EGE,39.64249,-106.9181,America/Denver,2009.0
Eagle Creek Airpark,,KEYE,US,Indianapolis,IND,39.82977,-86.29471,America/Indiana/Indianapolis,
"Eagle, Eagle Airport",,KEAA,US,,,64.77639,-141.16056,America/Anchorage,
Eagle Grove Municipal Airport,,KEAG,US,Eagle Grove,FOD,42.70906,-93.91251,America/Chicago,
Eagle Lake Airport,ELA,KELA,US,Eagle Lake,,29.59798,-96.3216,America/Chicago,
Eagle Airport,EAA,PAEG,US,Eagle,EAA,64.77639,-141.15083,America/Anchorage,
Eagle Air Park,BZT,,US,Brazoria,,28.98219,-95.57967,America/Chicago,
Eagle River Union Airport,EGV,KEGV,US,Eagle River,EGV,45.9319,-89.26791,America/Chicago,
Eaker Field,DUA,KDUA,US,Durant,,33.94232,-96.39471,America/Chicago,
Eareckson Air Station,SYA,PASY,US,Shemya,,52.71369,174.11508,America/Adak,
Earl Henry Airport,BWL,,US,Blackwell,PNC,36.79579,-97.3133,America/Chicago,
Early County Airport,,KBIJ,US,Blakely,,31.39846,-84.89602,America/New_York,
East 34th Street Heliport,TSS,,US,New York,NYC,40.74208,-73.97211,America/New_York,
East Georgia Regional Airport,,KSBO,US,Swainsboro,,32.61212,-82.37019,America/New_York,
East Hampton Airport,HTO,KHTO,US,East Hampton,HTO,40.96159,-72.24852,America/New_York,
Eastern Oregon Regional Airport,PDT,KPDT,US,Pendleton,PDT,45.6943,-118.84166,America/Los_Angeles,
Eastern West Virginia Regional Airport,MRB,KMRB,US,Martinsburg,MRB,39.40177,-77.98444,America/New_York,
Easterwood Field,CLL,KCLL,US,College Station,CLL,30.58853,-96.36385,America/Chicago,
Eastland Municipal Airport,ETN,KETN,US,Eastland,,32.41488,-98.81079,America/Chicago,
Easton Airport,ESN,KESN,US,Easton,ESN,38.804,-76.06883,America/New_York,
Easton State Airport,ESW,KESW,US,Easton,,47.25404,-121.18493,America/Los_Angeles,
Eastport Municipal Airport,,KEPM,US,Eastport,,44.91145,-67.01514,America/New_York,
Ed-Air Airport,OTN,,US,Oaktown,,38.85778,-87.50053,America/Indiana/Vincennes,
Edenton Municipal Airport,EDE,KEDE,US,Edenton,EDE,36.02516,-76.56633,America/New_York,
Edgar County Airport,,KPRG,US,Paris,,39.70016,-87.66962,America/Chicago,
Edinburg Rio Grande Valley Regional Freight Terminal Airport,,KEBG,US,McAllen,MFE,26.44229,-98.12973,America/Chicago,
Edna Bay Airport,EDA,,US,Edna Bay,EDA,55.95002,-133.66662,America/Sitka,
Edward F Knapp State Airport,MPV,KMPV,US,Barre/Montpelier,MPV,44.20317,-72.56365,America/New_York,
Edwards County Airport,,KECU,US,Rocksprings,,29.94688,-100.17397,America/Chicago,
Edwards Air Force Auxiliary North Base,,,US,,,34.98333,-117.85,America/Los_Angeles,
Edwards Air Force Base,EDW,KEDW,US,Edwards,EDW,34.91537,-117.89331,America/Los_Angeles,
Eek Airport,EEK,PAEE,US,Eek,EEK,60.21388,-162.04142,America/Nome,
Effingham County Memorial Airport,,,US,,,39.07473,-88.53535,America/Chicago,
Egegik Airport,EGX,PAII,US,Egegik,EGX,58.18618,-157.37484,America/Anchorage,
Eielson Air Force Base,EIL,PAEI,US,Fairbanks,FAI,64.66444,-147.09944,America/Anchorage,
Ekuk Airport,KKU,,US,Ekuk,KKU,58.81168,-158.56106,America/Anchorage,
Ekwok Airport,KEK,,US,Ekwok,KEK,59.35313,-157.47452,America/Anchorage,
"El Centro, Naval Air Facility",NJK,KNJK,US,El Centro,BWC,32.82922,-115.67167,America/Los_Angeles,
El Monte Airport,EMT,KEMT,US,El Monte,EMT,34.08584,-118.03562,America/Los_Angeles,
El Paso International Airport,ELP,KELP,US,El Paso,ELP,31.80677,-106.37832,America/Denver,5478.0
El Reno Regional Airport,RQO,KRQO,US,El Reno,OKC,35.4725,-98.00556,America/Chicago,
Elbert County Airport-Patz Field,,KEBA,US,,,34.095,-82.81583,America/New_York,
Eldred Rock Coast Guard Heliport,ERO,,US,,,58.9707,-135.22028,America/Juneau,
Elfin Cove Seaplane Base,ELV,PAEL,US,Elfin Cove,ELV,58.195,-136.34722,America/Juneau,
Elim Airport,ELI,PFEL,US,Elim,ELI,64.61658,-162.27007,America/Nome,
Elizabeth City Regional Airport,ECG,KECG,US,Elizabeth City,ECG,36.26044,-76.17438,America/New_York,
Elizabeth Field,FID,,US,Fishers Island,FID,41.25382,-72.02977,America/New_York,
Elk City Regional Business Airport,ELK,KELK,US,Elk City,,35.4261,-99.39598,America/Chicago,
Elkhart-Morton County Airport,,KEHA,US,Elkhart,,37.00086,-101.88211,America/Chicago,
Elkhart Municipal Airport,EKI,KEKM,US,Elkhart,EKI,41.72005,-85.99972,America/Indiana/Indianapolis,
Elkin Municipal Airport,,KZEF,US,Elkin,INT,36.28042,-80.78895,America/New_York,
Elko Regional Airport,EKO,KEKO,US,Elko,EKO,40.82375,-115.79247,America/Los_Angeles,187.0
Ellamar Seaplane Base,ELW,,US,Ellamar,,60.89389,-146.70361,America/Anchorage,
Ellington Field,EFD,KEFD,US,Houston,HOU,29.60745,-95.15882,America/Chicago,
Ellington Airport,,KLUG,US,Lewisburg,SYI,35.50039,-86.80826,America/Chicago,
Ellsworth Air Force Base,RCA,KRCA,US,Rapid City,RAP,44.14504,-103.10357,America/Denver,
Elmendorf Air Force Base,EDF,PAED,US,Anchorage,ANC,61.25306,-149.79361,America/Anchorage,
Elmira/Corning Regional Airport,ELM,KELM,US,Elmira/Corning,ELM,42.1598,-76.89107,America/New_York,394.0
Elton Hensley Memorial Airport,,KFTT,US,Fulton,,38.8381004333,-92.0026016235,America/Chicago,
Ely Municipal Airport,LYU,KELO,US,Ely,,47.82435,-91.8307,America/Chicago,
Ely Airport-Yelland Field,ELY,KELY,US,Ely,ELY,39.29938,-114.84168,America/Los_Angeles,
Emmetsburg Municipal Airport,,KEGQ,US,Emmetsburg,,43.1020011902,-94.7046966553,America/Chicago,
Emmonak Airport,EMK,PAEM,US,Emmonak,EMK,62.78019,-164.49044,America/Nome,
Emporia-Greensville Regional Airport,,KEMV,US,Emporia,,36.68709,-77.4847,America/New_York,
Emporia Municipal Airport,EMP,KEMP,US,Emporia,EMP,38.33279,-96.19111,America/Chicago,
Enid Woodring Regional Airport,WDG,KWDG,US,Enid,WDG,36.38359,-97.78753,America/Chicago,
Ennis - Big Sky Airport,,KEKS,US,Ennis,,45.26832,-111.6503,America/Denver,
Enterprise Municipal Airport,ETS,KEDN,US,Enterprise,ETS,31.29794,-85.9001,America/Chicago,
Entrance Island Seaplane Base,HBH,,US,Entrance Island,,57.41279,-133.43998,America/Juneau,
Ephrata Municipal Airport,EPH,KEPH,US,Ephrata,MWH,47.30514,-119.51309,America/Los_Angeles,
Eppley Airfield,OMA,KOMA,US,Omaha,OMA,41.3011,-95.89848,America/Chicago,8012.0
Erie International Airport,ERI,KERI,US,Erie,ERI,42.08172,-80.17701,America/New_York,374.0
Erie Municipal Airport,,KEIK,US,Erie,BJC,40.00919,-105.04937,America/Denver,
Ernest A. Love Field,PRC,KPRC,US,Prescott,PRC,34.65091,-112.42044,America/Phoenix,374.0
Errol Airport,ERR,KERR,US,Errol,,44.79273,-71.16431,America/New_York,
"Erwin, Harnett County Airport",,KHRJ,US,,,35.37861,-78.73361,America/New_York,
Essex County Airport,CDW,KCDW,US,Caldwell,CDW,40.8751,-74.2807,America/New_York,
Estherville Municipal Airport,EST,KEST,US,Estherville,,43.40718,-94.74637,America/Chicago,
Eunice Airport,UCE,,US,Eunice,,30.47039,-92.42604,America/Chicago,
Eureka Airport,EUE,,US,Eureka,,39.60036,-116.00644,America/Los_Angeles,
Evanston-Uinta County Burns Field,EVW,KEVW,US,Evanston,,41.27467,-111.03268,America/Denver,
Evansville Regional Airport,EVV,KEVV,US,Evansville,EVV,38.03656,-87.53701,America/Chicago,1553.0
Evart Municipal Airport,,,US,Mount Pleasant,MOP,43.89574,-85.28558,America/Detroit,
Eveleth-Virginia Municipal Airport,EVM,KEVM,US,Eveleth,EVM,47.4241,-92.49769,America/Chicago,
Evelyn Sharp Field,,KODX,US,Ord,,41.62334,-98.95176,America/Chicago,
Everett-Stewart Regional Airport,UCY,KUCY,US,Union City,,36.38259,-88.9829,America/Chicago,
Excursion Inlet Seaplane Base,EXI,,US,Excursion Inlet,EXI,58.41879,-135.44836,America/Juneau,
Fairbanks International Airport,FAI,PAFA,US,Fairbanks,FAI,64.81368,-147.85967,America/Anchorage,7063.0
"FAIRBANKS(PEDRO DOME MET RADAR SITE),AK",,PABK,US,,,64.816389,147.855556,Asia/Srednekolymsk,
Fairbury Municipal Airport,FBY,KFBY,US,Fairbury,,40.17718,-97.1672,America/Chicago,
Fairchild Air Force Base,SKA,KSKA,US,Spokane,GEG,47.61506,-117.65577,America/Los_Angeles,
Fairfield County Airport,,KFDW,US,Winnsboro,,34.31518,-81.11064,America/New_York,
Fairfield County Airport,,KLHQ,US,Lancaster,CMH,39.75413,-82.66142,America/New_York,
Fairfield Municipal Airport,FFL,KFFL,US,Fairfield,OTM,41.05307,-91.97878,America/Chicago,
Fairfield Municipal Airport,,KFWC,US,Fairfield,,38.37866,-88.41116,America/Chicago,
Fairmont Municipal Airport-Frankman Field,,,US,Morgantown,MGW,39.44817,-80.16703,America/New_York,
Fairmont Municipal Airport,FRM,KFRM,US,Fairmont,,43.64384,-94.4158,America/Chicago,
Fairmont State Airfield,,KFMZ,US,Fairmont,,40.59508,-97.56859,America/Chicago,
Falcon Field,MSC,KFFZ,US,Mesa,MSC,33.45915,-111.72681,America/Phoenix,
Fallon Municipal Airport,FLX,KFLX,US,Fallon,,39.49751,-118.7544,America/Los_Angeles,
Falls Bay Seaplane Base,FLJ,,US,,,60.51768,-147.99906,America/Anchorage,
Falls International Airport-Einarson Field,INL,KINL,US,International Falls,INL,48.56619,-93.39881,America/Chicago,373.0
False Island Seaplane Base,FAK,,US,False Island,,57.5279,-135.20891,America/Sitka,
False Pass Airport,KFP,PAKF,US,False Pass,KFP,54.85133,-163.40766,America/Nome,
False River Regional Airport,HZR,KHZR,US,New Roads,BTR,30.71161,-91.48029,America/Chicago,
Farewell Lake Seaplane Base,,PAFK,US,Farewell Lake,,62.54222,-153.6225,America/Anchorage,
Farewell Airport,FWL,PAFW,US,Farewell,,62.50861,-153.89314,America/Anchorage,
Faribault Municipal Airport,FBL,KFBL,US,Faribault,FBL,44.32441,-93.31077,America/Chicago,
Farmington Regional Airport,FAM,KFAM,US,Farmington,,37.76227,-90.42929,America/Chicago,
Farmville Municipal Airport,,KFVX,US,,,37.35598,-78.43833,America/New_York,
Fayette County Airport,,KFYE,US,Somerville,,35.20725,-89.39322,America/Chicago,
Fayette Regional Air Center,,,US,,,29.90864,-96.94887,America/Chicago,
Fayetteville Municipal Airport,FAY,KFAY,US,Fayetteville,FAY,34.99072,-78.8803,America/New_York,1402.0
Fayetteville Municipal Airport,FYM,KFYM,US,Fayetteville,,35.05836,-86.56608,America/Chicago,
Felker Army Airfield,FAF,KFAF,US,Newport News (Fort Eustis),PHF,37.13357,-76.60836,America/New_York,
Felts Field,SFF,KSFF,US,Spokane,GEG,47.68267,-117.32243,America/Los_Angeles,
"Fentress, Naval Auxiliary Landing Field",,KNFE,US,Fentress,NTU,36.70083,-76.12833,America/New_York,
Fergus Falls Municipal/Einar Mickelson Field,FFM,KFFM,US,Fergus Falls,FFM,46.28413,-96.15701,America/Chicago,
Fernandina Beach Municipal Airport,,KFHB,US,,,30.61598,-81.46269,America/New_York,
Ferndale Resort Seaplane Base,CKE,,US,,,39.00333,-122.79717,America/Los_Angeles,
Festus Memorial Airport,,KFES,US,,,38.19498,-90.38636,America/Chicago,
Fillmore County Airport,,KFKA,US,Preston,,43.67635,-92.17961,America/Chicago,
Fillmore Municipal Airport,FIL,KFOM,US,Fillmore,,38.96308,-112.35712,America/Denver,
Findlay Airport,FDY,KFDY,US,Findlay,FDY,41.01339,-83.66854,America/New_York,
First Flight Airport,FFA,KFFA,US,Kill Devil Hills,,36.01822,-75.67129,America/New_York,
Fishermans Bay Seaplane Base,LPS,,US,Bellingham,BLI,48.51649,-122.91518,America/Los_Angeles,
Fitch H. Beach Airport,,KFPK,US,Charlotte,LAN,42.57448,-84.81138,America/Detroit,
Fitchburg Municipal Airport,,KFIT,US,Fitchburg,ASH,42.55398,-71.75841,America/New_York,
Fitzgerald Municipal Airport,,KFZG,US,Fitzgerald,,31.6819,-83.27097,America/New_York,
Five Finger Coast Guard Heliport,FIV,,US,,,57.27063,-133.63182,America/Juneau,
Flabob Airport,RIR,KRIR,US,Riverside,RAL,33.9894,-117.40997,America/Los_Angeles,
Flagler County Airport,,KFIN,US,Daytona Beach,DAB,29.47168,-81.20677,America/New_York,
Flagstaff Pulliam Airport,FLG,KFLG,US,Flagstaff,GCN,35.13835,-111.67183,America/Phoenix,1059.0
Flat Airport,FLT,,US,Flat,,62.45283,-157.9864,America/Anchorage,
Fleming-Mason Airport,,KFGX,US,Flemingsburg,,38.54181,-83.74339,America/New_York,
Fletcher Field,CKM,KCKM,US,Clarksdale,,34.29236,-90.51407,America/Chicago,
Flora Municipal Airport,,KFOA,US,Flora,,38.6656,-88.45227,America/Chicago,
Florala Municipal Airport,,,US,Crestview,CEW,31.04594,-86.30963,America/Chicago,
Florence Municipal Airport,FMU,,US,Florence,,43.98446,-124.11068,America/Los_Angeles,
Florence Regional Airport,FLO,KFLO,US,Florence,FLO,34.18516,-79.72367,America/New_York,468.0
Florida Keys Marathon International Airport,MTH,KMTH,US,Marathon,MTH,24.72523,-81.05155,America/New_York,
Floyd Bennett Memorial Airport,GFL,KGFL,US,Glens Falls,GFL,43.34202,-73.60522,America/New_York,
Floyd W. Jones Lebanon Airport,,KLBO,US,Lebanon,,37.6483,-92.652397,America/Chicago,
Flying Cloud Airport,FCM,KFCM,US,Minneapolis,MSP,44.82719,-93.45717,America/Chicago,
Flying T Farm Airport,,KRMN,US,,,38.4329,-77.47054,America/New_York,
Flying W Airport,,,US,Lumberton,,39.934107,-74.807253,America/New_York,
Folsom,,,US,Cullman,,34.286611,-86.933361,America/Chicago,
Fond du Lac County Airport,FLD,KFLD,US,Fond du Lac,FLD,43.77082,-88.48844,America/Chicago,
Foothills Regional Airport,MRN,KMRN,US,Morganton,HKY,35.82237,-81.61219,America/New_York,
Ford Island Naval Auxiliary Landing Field,,PHNP,US,Honolulu,,21.362946,-157.961784,Pacific/Honolulu,
Ford Airport,IMT,KIMT,US,Kingsford,IMT,45.81522,-88.11768,America/Menominee,
Forest City Municipal Airport,FXY,KFXY,US,Forest City,MCW,43.23918,-93.62844,America/Chicago,
Forrest City Municipal Airport,FCY,KFCY,US,Forrest City,,34.94279,-90.77427,America/Chicago,
Fort Bragg Airport,FOB,,US,Fort Bragg,,39.4715,-123.7953,America/Los_Angeles,
Fort Bridger Airport,FBR,KFBR,US,Fort Bridger,,41.39771,-110.39904,America/Denver,
Fort Campbell U. S. Army Airfield,HOP,KHOP,US,Fort Campbell,HOP,36.66857,-87.49618,America/Chicago,
Fort Collins-Loveland Municipal Airport,FNL,KFNL,US,Loveland,FNL,40.45165,-105.01164,America/Denver,
Fort Devens / Ayer,,KAYE,US,Nashua,ASH,42.56667,-71.6,America/New_York,
Fort Dodge Municipal Airport,FOD,KFOD,US,Fort Dodge,FOD,42.55136,-94.19246,America/Chicago,319.0
Fort Gillem Heliport,,,US,Atlanta,ATL,33.61987,-84.34286,America/New_York,
"Fort Hood, Hood AAF Ft Hood",HLR,KHLR,US,Killeen,ILE,31.13873,-97.71447,America/Chicago,
Fort Hunter Liggett Heliport,HGT,,US,,,35.9937,-121.23613,America/Los_Angeles,
Fort Lauderdale Executive Airport,FXE,KFXE,US,Fort Lauderdale,FLL,26.19758,-80.17032,America/New_York,
Fort Lauderdale-Hollywood International Airport,FLL,KFLL,US,Ft Lauderdale,FLL,26.07147,-80.144,America/New_York,32379.0
Fort Madison Municipal Airport,FMS,KFSW,US,Fort Madison,BRL,40.65921,-91.32682,America/Chicago,
Fort Morgan Municipal Airport,,KFMM,US,Fort Morgan,,40.32901,-103.80368,America/Denver,
"Fort Polk, Polk AAF Ft Polk",POE,KPOE,US,Fort Polk,,31.04483,-93.19167,America/Chicago,
"Fort Rucker, Hanchey Army Heliport",HEY,KHEY,US,Fort Rucker Ozark,DHN,31.34631,-85.65482,America/Chicago,
"Fort Rucker, Lowe Army Heliport",LOR,KLOR,US,Dothan,DHN,31.35889,-85.74833,America/Chicago,
Fort Scott Municipal Airport,FSK,KFSK,US,Fort Scott,,37.7941,-94.76678,America/Chicago,
Fort Smith Municipal Airport,FSM,KFSM,US,Fort Smith,FSM,35.33648,-94.36744,America/Chicago,842.0
"Fort Stockton, Fort Stockton-Pecos County Airport",FST,KFST,US,Fort Stockton,,30.91194,-102.91667,America/Chicago,
Fort Sumner Municipal Airport,FSU,KFSU,US,Fort Sumner,,34.48431,-104.21642,America/Denver,
Fort Wayne International Airport,FWA,KFWA,US,Fort Wayne,FWA,40.9864,-85.1875,America/Indiana/Indianapolis,3041.0
Fort Worth Alliance Airport,AFW,KAFW,US,Fort Worth,FTW,32.98586,-97.3146,America/Chicago,
Fort Worth Meacham International Airport,FTW,KFTW,US,Fort Worth,FTW,32.8193,-97.36196,America/Chicago,
Fort Worth Spinks Airport,,KFWS,US,Fort Worth,FTW,32.56541,-97.30863,America/Chicago,
Fort Yukon Airport,FYU,PFYU,US,Fort Yukon,FYU,66.57139,-145.25028,America/Anchorage,
Fosston Municipal Airport,,KFSE,US,Fosston,,47.59274,-95.77364,America/Chicago,
Fostoria Metropolitan Airport,,KFZI,US,Fostoria,FDY,41.18965,-83.39674,America/New_York,
Four Corners Regional Airport,FMN,KFMN,US,Farmington,FMN,36.74195,-108.2298,America/Denver,
Fox Stephens Field - Gilmer Municipal Airport,,KJXI,US,Gilmer,,32.69889,-94.94889,America/Chicago,
Frank Wiley Field,MLS,KMLS,US,Miles City,MLS,46.42778,-105.88667,America/Denver,
Frankfort Dow Memorial Field,,KFKS,US,Frankfort,,44.625,-86.20056,America/Detroit,
Frankfort Municipal Airport,,KFKR,US,Kokomo,OKK,40.27733,-86.56261,America/Indiana/Indianapolis,
Franklin County Airport,UOS,KUOS,US,Sewanee,APT,35.20531,-85.89969,America/Chicago,
Franklin County State Airport,,KFSO,US,Swanton,,44.93976,-73.09791,America/New_York,
Franklin Municipal-John Beverly Rose Airport,FKN,KFKN,US,Franklin,,36.69848,-76.90302,America/New_York,
Frederick Municipal Airport,FDK,KFDK,US,Frederick,FDK,39.41732,-77.37415,America/New_York,
Frederick Municipal Airport,FDR,KFDR,US,Frederick,,34.35203,-98.9848,America/Chicago,
Freeman Municipal Airport,SER,KSER,US,Seymour,,38.92476,-85.90726,America/Indiana/Indianapolis,
Freeway Airport,,,US,College Park,CGS,38.94317,-76.77199,America/New_York,
Fremont County Airport,CNE,,US,Penrose,CNE,38.43093,-105.10453,America/Denver,
Fremont Municipal Airport,FET,KFET,US,Fremont,FET,41.44694,-96.5178,America/Chicago,
Fremont Municipal Airport,,KFFX,US,Fremont,,43.44495,-85.99344,America/Detroit,
French Frigate Shoals Airport,,PHHF,US,Tern Island,,23.8707,-166.28502,Pacific/Honolulu,
French Lick Municipal Airport,FRH,KFRH,US,French Lick,,38.50341,-86.63992,America/Indiana/Indianapolis,
French Valley Airport,RBK,,US,Murrieta,RBK,33.57552,-117.1292,America/Los_Angeles,
Fresno-Chandler Downtown Airport,FCH,KFCH,US,Fresno,FAT,36.73217,-119.8207,America/Los_Angeles,
Fresno Yosemite International Airport,FAT,KFAT,US,Fresno,FAT,36.77606,-119.71903,America/Los_Angeles,4944.0
Friday Harbor Airport,FRD,KFHR,US,Friday Harbor,FRD,48.52621,-123.02518,America/Los_Angeles,
Friday Harbor Seaplane Base,FBS,,US,Friday Harbor,FRD,48.53732,-123.00962,America/Los_Angeles,
Friedman Memorial Airport,SUN,KSUN,US,Hailey,SUN,43.50657,-114.29782,America/Boise,
Front Range Airport,,KFTG,US,Denver,DEN,39.79215,-104.54959,America/Denver,
Front Royal-Warren County Airport,FRR,KFRR,US,Front Royal,FRR,38.91851,-78.25343,America/New_York,
Fryeburg/Eastern Slopes Regional Airport,FRY,KIZG,US,Fryeburg,FRY,43.99063,-70.94646,America/New_York,
Ft. Stewart,LIY,KLHW,US,Hinesville,LIY,31.88333,-81.56667,America/New_York,
Fullerton Municipal Airport,FUL,KFUL,US,Fullerton,FUL,33.87196,-117.98062,America/Los_Angeles,
Fulton County Airport-Brown Field,FTY,KFTY,US,Atlanta,ATL,33.779,-84.52132,America/New_York,
Fulton County Airport,RCR,KRCR,US,Rochester,,41.06572,-86.19015,America/Indiana/Indianapolis,
Fulton County Airport,,KUSE,US,Wauseon,,41.60937,-84.1322,America/New_York,
Funter Bay Seaplane Base,FNR,PANR,US,Funter Bay,JNU,58.25417,-134.89778,America/Juneau,
Furnace Creek Airport,DTH,,US,Death Valley,,36.46339,-116.88002,America/Los_Angeles,
Gabbs Airport,GAB,KGAB,US,Gabbs,,38.92165,-117.95346,America/Los_Angeles,
Gage Airport,GAG,KGAG,US,Gage,,36.29502,-99.77379,America/Chicago,
Gaines County Airport,,KGNC,US,Seminole,,32.67722,-102.64657,America/Chicago,
Gainesville Municipal Airport,GLE,KGLE,US,Gainesville,,33.64998,-97.20243,America/Chicago,
Gainesville Regional Airport,GNV,KGNV,US,Gainesville,GNV,29.69025,-82.27149,America/New_York,2209.0
Galbraith Lake Airport,GBH,PAGB,US,Galbraith Lake,,68.47889,-149.49,America/Anchorage,
Galena Airport,GAL,PAGA,US,Galena,GAL,64.73611,-156.93722,America/Anchorage,1559.0
Galesburg Municipal Airport,GBG,KGBG,US,Galesburg,GBG,40.94388,-90.42955,America/Chicago,
Galion Municipal Airport,GQQ,KGQQ,US,Galion,MFD,40.75127,-82.72459,America/New_York,
Gallatin Field Airport,BZN,KBZN,US,Bozeman,BZN,45.7766,-111.15356,America/Denver,4157.0
Gallia Meigs Regional Airport,,KGAS,US,Gallipolis,,38.834099,-82.163399,America/New_York,
"Galliano, South Lafourche Airport",,KGAO,US,,,29.44472,-90.26111,America/Chicago,
Gallup Municipal Airport,GUP,KGUP,US,Gallup,GUP,35.51364,-108.77817,America/Denver,
Gambell Airport,GAM,PAGM,US,Gambell,GAM,63.76667,-171.73278,America/Nome,
Gansner Field,GNF,,US,Quincy,,39.94416,-120.9454,America/Los_Angeles,
Garden City Regional Airport,GCK,KGCK,US,Garden City,GCK,37.92764,-100.72036,America/Chicago,374.0
Garden County Airport,OKS,KOKS,US,Oshkosh,,41.39944,-102.35297,America/Denver,
Gardner Municipal Airport,GDM,KGDM,US,Gardner,ASH,42.55091,-72.01526,America/New_York,
Garfield County Regional Airport,RIL,KRIL,US,Rifle,RIL,39.52609,-107.72728,America/Denver,
Garner Field Airport,UVA,KUVA,US,Uvalde,UVA,29.21739,-99.7432,America/Chicago,
Garrett County Airport,ODM,,US,Accident,,39.58169,-79.3378,America/New_York,
Gary/Chicago International Airport,GYY,KGYY,US,Gary,GYY,41.61779,-87.40845,America/Chicago,
Gastonia Municipal Airport,,KAKH,US,Gastonia,USA,35.19847,-81.14647,America/New_York,
Gatesville Municipal Airport,,KGOP,US,Gatesville,ILE,31.42111,-97.79694,America/Chicago,
Gatlinburg-Pigeon Forge Airport,GKT,KGKT,US,Sevierville,TYS,35.85853,-83.52697,America/New_York,
Gaylord Regional Airport,GLR,KGLR,US,Gaylord,GLR,45.01585,-84.69328,America/Detroit,
General Downing - Peoria International Airport,PIA,KPIA,US,Peoria,PIA,40.66,-89.69455,America/Chicago,1894.0
General Mitchell International Airport,MKE,KMKE,US,Milwaukee,MKE,42.94668,-87.89675,America/Chicago,9257.0
General Wm J Fox Airfield,WJF,KWJF,US,Lancaster,WJF,34.73305,-118.21987,America/Los_Angeles,
Genesee County Airport,,KGVQ,US,Batavia,,43.03058,-78.16946,America/New_York,
George Bush Intercontinental Airport,IAH,KIAH,US,Houston,HOU,29.98687,-95.34212,America/Chicago,91461.0
George Downer Airport,AIV,KAIV,US,Aliceville,TCL,33.10895,-88.19027,America/Chicago,
George M Bryan Airport,,KSTF,US,Starkville,UBS,33.43674,-88.84698,America/Chicago,
George R Carr Memorial Air Field,BXA,KBXA,US,Bogalusa,,30.81352,-89.8648,America/Chicago,
George T Lewis Airport,CDK,KCDK,US,Cedar Key,,29.13775,-83.04957,America/Kentucky/Monticello,
Georgetown County Airport,GGE,KGGE,US,Georgetown,GGE,33.31589,-79.32247,America/New_York,
Georgetown Municipal Airport,,KGTU,US,,,30.67817,-97.67651,America/Chicago,
Georgetown-Scott County Regional Airport,,,US,Georgetown,,38.234173,-84.432938,America/New_York,
Gerald R. Ford International Airport,GRR,KGRR,US,Grand Rapids,GRR,42.88461,-85.52958,America/Detroit,7454.0
Gettysburg Regional Airport,GTY,,US,Gettysburg,THV,39.84176,-77.27397,America/New_York,
Gibson County Airport,,KTGC,US,Milan,,35.93523,-88.85026,America/Chicago,
"Giddings, Giddings-Lee County Airport",,KGYB,US,Giddings,,30.16917,-96.98,America/Chicago,
Gila Bend U. S. Army Airfield,,KGBN,US,,,32.43333,-112.68333,America/Phoenix,
Gillespie County Airport,,,US,Fredericksburg,,30.24333,-98.90917,America/Chicago,
Gillespie Field,SEE,KSEE,US,San Diego/El Cajon,SAN,32.82616,-116.97308,America/Los_Angeles,
Gillette-Campbell County Airport,GCC,KGCC,US,Gillette,GCC,44.34887,-105.53972,America/Denver,
Girdwood Airport,AQY,,US,Girdwood,,60.96813,-149.11917,America/Anchorage,
Glacier Creek Airport,KGZ,,US,Glacier Creek,,61.45376,-142.37908,America/Anchorage,
Glacier Park International Airport,FCA,KGPI,US,Kalispell,FCA,48.31135,-114.25596,America/Denver,
Glade Springs Heliport,,,US,,,37.72456,-81.09704,America/New_York,
Gladwin Zettel Memorial Airport,GDW,KGDW,US,Gladwin,,43.97379,-84.47798,America/Detroit,
Glasgow International Airport,GGW,KGGW,US,Glasgow,GGW,48.21224,-106.61532,America/Denver,374.0
Glasgow Municipal Airport,GLW,KGLW,US,Glasgow,BWG,37.03206,-85.95261,America/Chicago,
Glencoe Municipal Airport,,KGYL,US,Glencoe,,44.75604,-94.08121,America/Chicago,
Glendale Fokker Field Airport,GWV,,US,Glendale,HLG,39.94868,-80.75953,America/New_York,
Glendale Municipal Airport,,KGEU,US,Glendale,GYR,33.52726,-112.29571,America/Phoenix,
Glenwood Municipal Airport,,KGHW,US,Glenwood,,45.64468,-95.32087,America/Chicago,
Glenwood Springs Municipal Airport,GWS,KGWS,US,Glenwood Springs,,39.50709,-107.30919,America/Denver,
Gnoss Field,NOT,KDVO,US,Novato,NOT,38.14105,-122.55664,America/Los_Angeles,
Godman Army Airfield,FTK,KFTK,US,Fort Knox,EKX,37.90757,-85.96978,America/New_York,
Gogebic-Iron County Airport,IWD,KIWD,US,Ironwood,IWD,46.52521,-90.13485,America/Menominee,
Gold Beach Municipal Airport,GOL,,US,Gold Beach,,42.41853,-124.42411,America/Los_Angeles,
Gold King Creek Airport,,PAAN,US,Fairbanks,,64.20004,-147.93274,America/Anchorage,
Golden Horn Lodge Seaplane Base,GDH,,US,Golden Horn Lodge,,59.74921,-158.87333,America/Anchorage,
Golden Triangle Regional Airport,GTR,KGTR,US,Columbus/W Point/Starkville,UBS,33.45012,-88.59116,America/Chicago,
Golovin Airport,GLV,PAGL,US,Golovin,GLV,64.54333,-163.03944,America/Nome,
Goodfellow Air Force Base,GOF,,US,San Angelo,SJT,31.43137,-100.40208,America/Chicago,
Gooding Municipal Airport,GNG,KGNG,US,Gooding,,42.9149,-114.76644,America/Boise,
Goodland Municipal Airport,GLD,KGLD,US,Goodland,GLD,39.36444,-101.69184,America/Denver,
Goodnews Airport,GNU,,US,Goodnews,GNU,59.11728,-161.5814,America/Anchorage,
Goodwin Field,ELD,KELD,US,El Dorado,ELD,33.22069,-92.81322,America/Chicago,177.0
Gordon Municipal Airport,GRN,KGRN,US,Gordon,GRN,42.80583,-102.17544,America/Denver,
Gordonsville Municipal Airport,GVE,KGVE,US,Gordonsville,CHO,38.15726,-78.16653,America/New_York,
Goshen Municipal Airport,GSH,KGSH,US,Goshen,GSH,41.5231,-85.79431,America/Indiana/Indianapolis,
Graham Municipal Airport,,KRPH,US,Graham,,33.11012,-98.55561,America/Chicago,
Graham-US Forest Service Airport,,,US,,,43.95566,-115.27206,America/Boise,
Granbury Municipal Airport,,KGDJ,US,,,32.4443,-97.81725,America/Chicago,
Granby Grand County Airport,,KGNB,US,Granby,,40.0896987915,-105.9169998169,America/Denver,
Grand Canyon Bar 10 Airport,GCT,,US,,,36.26018,-113.23122,America/Phoenix,
Grand Canyon Caverns Airport,PGS,,US,Peach Springs,,35.52962,-113.24106,America/Phoenix,
Grand Canyon Heliport,JGC,,US,Grand Canyon,GCN,35.960973,-112.131427,America/Phoenix,
Grand Canyon National Park Airport,GCN,KGCN,US,Grand Canyon - Tusayan,GCN,35.95221,-112.14684,America/Phoenix,
Grand Canyon West Airport,GCW,,US,Peach Springs,,35.98559,-113.81945,America/Phoenix,
Grand Coulee Dam Airport,GCD,,US,Electric City,,47.92032,-119.08378,America/Los_Angeles,
Grand Forks Air Force Base,RDR,KRDR,US,Grand Forks,GFK,47.9497,-97.3944,America/Chicago,
Grand Forks International Airport,GFK,KGFK,US,Grand Forks,GFK,47.94925,-97.17611,America/Chicago,596.0
Grand Geneva Resort Airport,XES,,US,Lake Geneva,,42.56674,-88.41969,America/Chicago,
Grand Glaize- Osage Beach Airport,OSB,,US,Osage Beach,OSB,38.11359,-92.6825,America/Chicago,
Grand Isle Seaplane Base,,KGNI,US,,,29.26273,-89.96118,America/Chicago,
Grand Junction Regional Airport,GJT,KGJT,US,Grand Junction,GJT,39.12303,-108.52868,America/Denver,
Grand Lake Regional Airport,NRI,,US,Afton,,36.58249,-94.86152,America/Chicago,
Grand Marais-Cook County Airport,GRM,KCKC,US,Grand Marais,,47.83795,-90.38316,America/Chicago,
Grand Prairie Municipal Airport,,KGPM,US,Grand Prairie,FTW,32.69847,-97.04695,America/Chicago,
Grand Rapids/Itasca County Airport-Gordon Newstrom Field,GPZ,KGPZ,US,Grand Rapids,GPZ,47.21352,-93.51477,America/Chicago,
Grand Strand Airport,CRE,KCRE,US,North Myrtle Beach,MYR,33.81128,-78.72335,America/New_York,
Granite Falls Municipal Airport,,KGDB,US,Granite Falls,,44.75306,-95.55583,America/Chicago,
Granite Mountain Air Station,GMT,PAGZ,US,Granite Mountain,,65.40456,-161.28205,America/Anchorage,
Grant County International Airport,MWH,KMWH,US,Moses Lake,MWH,47.20764,-119.32002,America/Los_Angeles,
Grant County Airport,PGC,,US,Petersburg,,38.99419,-79.14439,America/New_York,
Grant County Regional Airport,JDA,KGCD,US,John Day,,44.40287,-118.96788,America/Los_Angeles,
Grant Municipal Airport,,KGGF,US,Grant,,40.86967,-101.73127,America/Denver,
Grants-Milan Municipal Airport,GNT,KGNT,US,Grants,,35.1667,-107.90061,America/Denver,
Grants Pass Airport,GTP,,US,Grants Pass,GTP,42.50964,-123.38886,America/Los_Angeles,
Grantsburg Municipal Airport,GTG,KGTG,US,Grantsburg,,45.79651,-92.66374,America/Chicago,
Gratiot Community Airport,AMN,KAMN,US,Alma,,43.32198,-84.68778,America/Detroit,
Grayling Army Airfield,,KGOV,US,Grayling,,44.68048,-84.73036,America/Detroit,
Grayling Airport,KGX,PAGX,US,Grayling,KGX,62.89504,-160.06536,America/Anchorage,
Great Bend Municipal Airport,GBD,KGBD,US,Great Bend,GBD,38.34723,-98.87953,America/Chicago,
Great Falls International Airport,GTF,KGTF,US,Great Falls,GTF,47.4819,-111.37136,America/Denver,1257.0
Greater Binghamton Airport,BGM,KBGM,US,Binghamton,BGM,42.20841,-75.97909,America/New_York,341.0
Greater Cumberland Regional Airport,CBE,KCBE,US,Wiley Ford,CBE,39.61509,-78.76168,America/New_York,
Greater Kankakee Airport,IKK,KIKK,US,Kankakee,IKK,41.06737,-87.84876,America/Chicago,
Greater Portsmouth Regional Airport,PMH,KPMH,US,Portsmouth,,38.84011,-82.85005,America/New_York,
Greater Rochester International Airport,ROC,KROC,US,Rochester,ROC,43.11887,-77.67239,America/New_York,8057.0
Greeley-Weld County Airport,GXY,KGXY,US,Greeley,GXY,40.42776,-104.63302,America/Denver,
Green River Municipal Airport,RVR,,US,Green River,,38.96383,-110.22792,America/Denver,
Greenbrier Valley Airport,LWB,KLWB,US,Lewisburg,LWB,37.85818,-80.39924,America/New_York,
Greene County Airport,WAY,KWAY,US,Waynesburg,MGW,39.89918,-80.13269,America/New_York,
Greene County Regional Airport,,,US,Greensboro,,33.59606,-83.13872,America/New_York,
Greeneville-Greene County Municipal Airport,GCY,KGCY,US,Greeneville,MOR,36.19337,-82.81153,America/New_York,
Greenfield Municipal Airport,,KGFZ,US,Greenfield,,41.32583,-94.44452,America/Chicago,
Greenlee County Airport,CFT,KCFT,US,Clifton,,32.957,-109.211,America/Phoenix,
Greensboro North Airport,,36NC,US,Greensboro,GSO,36.25289,-79.91703,America/New_York,
Greenville Downtown Airport,GMU,KGMU,US,Greenville,GSP,34.85031,-82.3509,America/New_York,
Greenville International Airport,GLH,KGLH,US,Greenville,GLH,33.48234,-90.9851,America/Chicago,
Greenville Airport,GRE,KGRE,US,Greenville,,38.83454,-89.37396,America/Chicago,
Greenville Municipal Airport,,,US,,,45.46533,-69.5538,America/New_York,
Greenville Municipal Airport,,,US,,,41.446,-80.39411,America/New_York,
Greenville-Spartanburg International Airport,GSP,KGSP,US,Greer,GSP,34.89567,-82.21886,America/New_York,7598.0
Greenwood County Airport,GRD,KGRD,US,Greenwood,GRD,34.24738,-82.15317,America/New_York,
Greenwood-Leflore Airport,GWO,KGWO,US,Greenwood,,33.49342,-90.08498,America/Chicago,
Gregg County Airport,GGG,KGGG,US,Longview,GGG,32.38487,-94.71188,America/Chicago,467.0
Gregory M. Simmons Memorial Airport,,KGZN,US,Cisco,,32.367348,-99.023642,America/Chicago,
Grenada Municipal Airport,,KGNF,US,Grenada,,33.83457,-89.79644,America/Chicago,
Grider Field,PBF,KPBF,US,Pine Bluff,PBF,34.17482,-91.93458,America/Chicago,
Griffing Sandusky Airport,SKY,KSKY,US,Sandusky,SKY,41.43311,-82.65212,America/New_York,
Griffiss International Airport,RME,KRME,US,Rome,RME,43.23333,-75.4,America/New_York,
Grinnell Regional Airport,,KGGI,US,Grinnell,,41.70826,-92.73079,America/Chicago,
Grissom Air Force Base / Peru,GUS,KGUS,US,Peru,OKK,40.64809,-86.15212,America/Indiana/Indianapolis,
Grosse Ile Municipal Airport,,KONZ,US,Detroit/Grosse Ile,,42.10605,-83.16106,America/Detroit,
Groton-New London Airport,GON,KGON,US,Groton,GON,41.3301,-72.04452,America/New_York,
Grove Municipal Airport,,KGMJ,US,Grove,,36.59977,-94.73691,America/Chicago,
Grundy Municipal Airport,,KGDY,US,,,37.23338,-82.12508,America/New_York,
Gulfport-Biloxi Regional Airport,GPT,KGPT,US,Gulfport,GPT,30.4077,-89.06976,America/Chicago,1944.0
Gulkana Airport,GKN,PAGK,US,Gulkana,,62.15472,-145.45639,America/Anchorage,
Gunnison County Airport,GUC,KGUC,US,Gunnison,GUC,38.53388,-106.93365,America/Denver,
Gustavus Airport,GST,PAGS,US,Gustavus,GST,58.42257,-135.70923,America/Juneau,
